[{"id": "91TLlpxUvRJcGlxedEw6YA", "alias": "cowboy-pizza-cave-creek", "name": "Cowboy Pizza", "image_url": "https://s3-media2.fl.yelpcdn.com/bphoto/ehpLQvsDiS_F2INNSlBwWQ/o.jpg", "is_closed": false, "url": "https://www.yelp.com/biz/cowboy-pizza-cave-creek?adjust_creative=_XtPN5sB9p2gFalQqwrzYQ&utm_campaign=yelp_api_v3&utm_medium=api_v3_business_search&utm_source=_XtPN5sB9p2gFalQqwrzYQ", "review_count": 68, "categories": [{"alias": "pizza", "title": "Pizza"}, {"alias": "beer_and_wine", "title": "Beer, Wine & Spirits"}], "rating": 4.0, "coordinates": {"latitude": 33.83065097618316, "longitude": -111.93173016003574}, "transactions": [], "location": {"address1": "6920 E Cave Creek Rd", "address2": null, "address3": "", "city": "Cave Creek", "zip_code": "85331", "country": "US", "state": "AZ", "display_address": ["6920 E Cave Creek Rd", "Cave Creek, AZ 85331"]}, "phone": "+14804882588", "display_phone": "(480) 488-2588", "distance": 3799.5313701733444}, {"id": "cZxjPy4OrqJKscmCypDFoQ", "alias": "pizzafarros-carefree-2", "name": "Pizzafarro's", "image_url": "https://s3-media2.fl.yelpcdn.com/bphoto/tsIfcPtU5vq6TK2BrYFbxw/o.jpg", "is_closed": false, "url": "https://www.yelp.com/biz/pizzafarros-carefree-2?adjust_creative=_XtPN5sB9p2gFalQqwrzYQ&utm_campaign=yelp_api_v3&utm_medium=api_v3_business_search&utm_source=_XtPN5sB9p2gFalQqwrzYQ", "review_count": 110, "categories": [{"alias": "italian", "title": "Italian"}, {"alias": "pizza", "title": "Pizza"}], "rating": 3.5, "coordinates": {"latitude": 33.82213835670556, "longitude": -111.9233903564234}, "transactions": ["delivery"], "price": "$$", "location": {"address1": "36889 N Tom Darlington Dr", "address2": "", "address3": "", "city": "Carefree", "zip_code": "85377", "country": "US", "state": "AZ", "display_address": ["36889 N Tom Darlington Dr", "Carefree, AZ 85377"]}, "phone": "+14804880703", "display_phone": "(480) 488-0703", "distance": 4921.623073665271}, {"id": "IT0IODInyhKbG4a_ka71MQ", "alias": "oreganos-cave-creek", "name": "Oregano's", "image_url": "https://s3-media2.fl.yelpcdn.com/bphoto/GTOjPfH0yDzGfMjgyLV41w/o.jpg", "is_closed": false, "url": "https://www.yelp.com/biz/oreganos-cave-creek?adjust_creative=_XtPN5sB9p2gFalQqwrzYQ&utm_campaign=yelp_api_v3&utm_medium=api_v3_business_search&utm_source=_XtPN5sB9p2gFalQqwrzYQ", "review_count": 462, "categories": [{"alias": "pizza", "title": "Pizza"}, {"alias": "italian", "title": "Italian"}], "rating": 3.5, "coordinates": {"latitude": 33.82786616479023, "longitude": -111.954726454725}, "transactions": ["delivery"], "price": "$$", "location": {"address1": "37645 Cave Creek Rd", "address2": "", "address3": "", "city": "Cave Creek", "zip_code": "85331", "country": "US", "state": "AZ", "display_address": ["37645 Cave Creek Rd", "Cave Creek, AZ 85331"]}, "phone": "+14808890386", "display_phone": "(480) 889-0386", "distance": 2302.6244049055863}, {"id": "sZkmUH_oRUhCgb4uhoS-zQ", "alias": "brugos-pizza-cave-creek-2", "name": "Brugo's Pizza", "image_url": "https://s3-media4.fl.yelpcdn.com/bphoto/sPoZU2VInj9lQm5oZcH7QQ/o.jpg", "is_closed": false, "url": "https://www.yelp.com/biz/brugos-pizza-cave-creek-2?adjust_creative=_XtPN5sB9p2gFalQqwrzYQ&utm_campaign=yelp_api_v3&utm_medium=api_v3_business_search&utm_source=_XtPN5sB9p2gFalQqwrzYQ", "review_count": 128, "categories": [{"alias": "pizza", "title": "Pizza"}, {"alias": "italian", "title": "Italian"}, {"alias": "bars", "title": "Bars"}], "rating": 3.5, "coordinates": {"latitude": 33.82982310051313, "longitude": -111.9285270090212}, "transactions": ["delivery"], "price": "$$", "location": {"address1": "7100 E Cave Creek Rd", "address2": "", "address3": "", "city": "Cave Creek", "zip_code": "85331", "country": "US", "state": "AZ", "display_address": ["7100 E Cave Creek Rd", "Cave Creek, AZ 85331"]}, "phone": "+14805753044", "display_phone": "(480) 575-3044", "distance": 4107.237085465514}, {"id": "__zA29wBG0LleSxMzNHpwQ", "alias": "alberto-ristorante-italiano-cave-creek", "name": "Alberto Ristorante Italiano", "image_url": "https://s3-media1.fl.yelpcdn.com/bphoto/hUNtfuEjkQBl8mFNouJliQ/o.jpg", "is_closed": false, "url": "https://www.yelp.com/biz/alberto-ristorante-italiano-cave-creek?adjust_creative=_XtPN5sB9p2gFalQqwrzYQ&utm_campaign=yelp_api_v3&utm_medium=api_v3_business_search&utm_source=_XtPN5sB9p2gFalQqwrzYQ", "review_count": 149, "categories": [{"alias": "italian", "title": "Italian"}, {"alias": "gluten_free", "title": "Gluten-Free"}], "rating": 4.0, "coordinates": {"latitude": 33.827597, "longitude": -111.924478}, "transactions": ["delivery"], "price": "$$", "location": {"address1": "7171 E Cave Creek Rd", "address2": "", "address3": "", "city": "Cave Creek", "zip_code": "85331", "country": "US", "state": "AZ", "display_address": ["7171 E Cave Creek Rd", "Cave Creek, AZ 85331"]}, "phone": "+14804885800", "display_phone": "(480) 488-5800", "distance": 4549.939478490824}, {"id": "Ijw0d-2wTcsciDesjCVgsA", "alias": "barros-pizza-cave-creek-3", "name": "Barro's Pizza", "image_url": "https://s3-media1.fl.yelpcdn.com/bphoto/gQBx4oQ-4flVnUa3KvWNqg/o.jpg", "is_closed": false, "url": "https://www.yelp.com/biz/barros-pizza-cave-creek-3?adjust_creative=_XtPN5sB9p2gFalQqwrzYQ&utm_campaign=yelp_api_v3&utm_medium=api_v3_business_search&utm_source=_XtPN5sB9p2gFalQqwrzYQ", "review_count": 146, "categories": [{"alias": "pizza", "title": "Pizza"}, {"alias": "italian", "title": "Italian"}, {"alias": "sandwiches", "title": "Sandwiches"}], "rating": 3.5, "coordinates": {"latitude": 33.7654269550417, "longitude": -111.98381521427}, "transactions": ["delivery"], "price": "$", "location": {"address1": "30815 N Cave Creek Rd", "address2": "Ste 132", "address3": "", "city": "Cave Creek", "zip_code": "85331", "country": "US", "state": "AZ", "display_address": ["30815 N Cave Creek Rd", "Ste 132", "Cave Creek, AZ 85331"]}, "phone": "+14804199161", "display_phone": "(480) 419-9161", "distance": 8918.737005120383}, {"id": "-EVBYBECSlt6FKE2ig4qAA", "alias": "gios-pizza-anthem", "name": "Gio's Pizza", "image_url": "https://s3-media4.fl.yelpcdn.com/bphoto/j0SHigxCJsJBaWkli0yGIg/o.jpg", "is_closed": false, "url": "https://www.yelp.com/biz/gios-pizza-anthem?adjust_creative=_XtPN5sB9p2gFalQqwrzYQ&utm_campaign=yelp_api_v3&utm_medium=api_v3_business_search&utm_source=_XtPN5sB9p2gFalQqwrzYQ", "review_count": 271, "categories": [{"alias": "pizza", "title": "Pizza"}, {"alias": "italian", "title": "Italian"}, {"alias": "coffee", "title": "Coffee & Tea"}], "rating": 4.5, "coordinates": {"latitude": 33.870433, "longitude": -112.150387}, "transactions": ["pickup", "delivery"], "price": "$", "location": {"address1": "4205 W Anthem Way", "address2": "Ste 104", "address3": "", "city": "Anthem", "zip_code": "85086", "country": "US", "state": "AZ", "display_address": ["4205 W Anthem Way", "Ste 104", "Anthem, AZ 85086"]}, "phone": "+16235002350", "display_phone": "(623) 500-2350", "distance": 16966.43474516461}, {"id": "rnCkjgSojs5wqCaeyKoAVg", "alias": "rays-pizza-cave-creek-phoenix", "name": "Ray's Pizza Cave Creek", "image_url": "https://s3-media3.fl.yelpcdn.com/bphoto/7UOWKJQcD0CFkySYqARHCw/o.jpg", "is_closed": false, "url": "https://www.yelp.com/biz/rays-pizza-cave-creek-phoenix?adjust_creative=_XtPN5sB9p2gFalQqwrzYQ&utm_campaign=yelp_api_v3&utm_medium=api_v3_business_search&utm_source=_XtPN5sB9p2gFalQqwrzYQ", "review_count": 76, "categories": [{"alias": "pizza", "title": "Pizza"}, {"alias": "chicken_wings", "title": "Chicken Wings"}, {"alias": "sandwiches", "title": "Sandwiches"}], "rating": 4.0, "coordinates": {"latitude": 33.7979911, "longitude": -111.9803344}, "transactions": ["delivery"], "price": "$$", "location": {"address1": "4705 E Carefree Hwy", "address2": "", "address3": "", "city": "Phoenix", "zip_code": "85331", "country": "US", "state": "AZ", "display_address": ["4705 E Carefree Hwy", "Phoenix, AZ 85331"]}, "phone": "+14804887823", "display_phone": "(480) 488-7823", "distance": 5295.704397758656}, {"id": "9ekvSQibalBglJH0ekuGlA", "alias": "rosatis-pizza-cave-creek", "name": "Rosati's Pizza", "image_url": "https://s3-media2.fl.yelpcdn.com/bphoto/8dhmF5OiTO0sObuxnvYdJw/o.jpg", "is_closed": false, "url": "https://www.yelp.com/biz/rosatis-pizza-cave-creek?adjust_creative=_XtPN5sB9p2gFalQqwrzYQ&utm_campaign=yelp_api_v3&utm_medium=api_v3_business_search&utm_source=_XtPN5sB9p2gFalQqwrzYQ", "review_count": 139, "categories": [{"alias": "pizza", "title": "Pizza"}, {"alias": "sportsbars", "title": "Sports Bars"}, {"alias": "italian", "title": "Italian"}], "rating": 3.5, "coordinates": {"latitude": 33.74249, "longitude": -111.9775}, "transactions": ["pickup", "delivery"], "price": "$$", "location": {"address1": "28325 N Tatum Blvd", "address2": "#7", "address3": "", "city": "Cave Creek", "zip_code": "85331", "country": "US", "state": "AZ", "display_address": ["28325 N Tatum Blvd", "#7", "Cave Creek, AZ 85331"]}, "phone": "+14805385380", "display_phone": "(480) 538-5380", "distance": 11364.45862916891}, {"id": "-eoeNEsPZ5-Fookdtr8vBw", "alias": "the-hideaway-grill-cave-creek", "name": "The Hideaway Grill", "image_url": "https://s3-media2.fl.yelpcdn.com/bphoto/mZe-IOWcni1YUtRyWwfyiA/o.jpg", "is_closed": false, "url": "https://www.yelp.com/biz/the-hideaway-grill-cave-creek?adjust_creative=_XtPN5sB9p2gFalQqwrzYQ&utm_campaign=yelp_api_v3&utm_medium=api_v3_business_search&utm_source=_XtPN5sB9p2gFalQqwrzYQ", "review_count": 122, "categories": [{"alias": "tradamerican", "title": "American"}, {"alias": "burgers", "title": "Burgers"}, {"alias": "sandwiches", "title": "Sandwiches"}], "rating": 4.0, "coordinates": {"latitude": 33.8328739, "longitude": -111.9346954}, "transactions": ["pickup", "delivery"], "price": "$$", "location": {"address1": "6746 E Cave Creek Rd", "address2": "", "address3": "", "city": "Cave Creek", "zip_code": "85331", "country": "US", "state": "AZ", "display_address": ["6746 E Cave Creek Rd", "Cave Creek, AZ 85331"]}, "phone": "+14805950358", "display_phone": "(480) 595-0358", "distance": 3450.00251149036}, {"id": "5BKP0DY4K79h9sd7THpeBw", "alias": "lamp-pizzeria-scottsdale", "name": "LAMP Pizzeria", "image_url": "https://s3-media1.fl.yelpcdn.com/bphoto/edc9WGDX2KpA6vpy2o2WJA/o.jpg", "is_closed": false, "url": "https://www.yelp.com/biz/lamp-pizzeria-scottsdale?adjust_creative=_XtPN5sB9p2gFalQqwrzYQ&utm_campaign=yelp_api_v3&utm_medium=api_v3_business_search&utm_source=_XtPN5sB9p2gFalQqwrzYQ", "review_count": 498, "categories": [{"alias": "pizza", "title": "Pizza"}], "rating": 4.5, "coordinates": {"latitude": 33.6989288, "longitude": -111.8888016}, "transactions": ["delivery"], "price": "$$", "location": {"address1": "8900 E Pinnacle Peak Rd", "address2": "Ste C1", "address3": "", "city": "Scottsdale", "zip_code": "85255", "country": "US", "state": "AZ", "display_address": ["8900 E Pinnacle Peak Rd", "Ste C1", "Scottsdale, AZ 85255"]}, "phone": "+14802928773", "display_phone": "(480) 292-8773", "distance": 17762.535762088377}, {"id": "SspR8JrDvf4OAa5aOq7I_g", "alias": "papa-johns-pizza-cave-creek", "name": "Papa Johns Pizza", "image_url": "https://s3-media2.fl.yelpcdn.com/bphoto/vkhqrAxSBl2OkWdE3KRNKQ/o.jpg", "is_closed": false, "url": "https://www.yelp.com/biz/papa-johns-pizza-cave-creek?adjust_creative=_XtPN5sB9p2gFalQqwrzYQ&utm_campaign=yelp_api_v3&utm_medium=api_v3_business_search&utm_source=_XtPN5sB9p2gFalQqwrzYQ", "review_count": 26, "categories": [{"alias": "pizza", "title": "Pizza"}, {"alias": "chicken_wings", "title": "Chicken Wings"}, {"alias": "hotdogs", "title": "Fast Food"}], "rating": 3.0, "coordinates": {"latitude": 33.798435146743266, "longitude": -111.97612453620366}, "transactions": ["pickup", "delivery"], "price": "$", "location": {"address1": "4815 Carefree Hwy", "address2": "Ste C128", "address3": "", "city": "Cave Creek", "zip_code": "85331", "country": "US", "state": "AZ", "display_address": ["4815 Carefree Hwy", "Ste C128", "Cave Creek, AZ 85331"]}, "phone": "+14805755646", "display_phone": "(480) 575-5646", "distance": 5185.243813080454}, {"id": "1IpLEEoMXUTCQyr0V9d9pw", "alias": "rosatis-pizza-anthem-2", "name": "Rosati's Pizza", "image_url": "https://s3-media1.fl.yelpcdn.com/bphoto/IVVubkW04jiYGfbPczcIfA/o.jpg", "is_closed": false, "url": "https://www.yelp.com/biz/rosatis-pizza-anthem-2?adjust_creative=_XtPN5sB9p2gFalQqwrzYQ&utm_campaign=yelp_api_v3&utm_medium=api_v3_business_search&utm_source=_XtPN5sB9p2gFalQqwrzYQ", "review_count": 202, "categories": [{"alias": "pizza", "title": "Pizza"}, {"alias": "sportsbars", "title": "Sports Bars"}, {"alias": "italian", "title": "Italian"}], "rating": 2.5, "coordinates": {"latitude": 33.86949, "longitude": -112.13943}, "transactions": ["pickup", "delivery"], "price": "$$", "location": {"address1": "3668 W Anthem Way", "address2": "#A128", "address3": "", "city": "Anthem", "zip_code": "85086", "country": "US", "state": "AZ", "display_address": ["3668 W Anthem Way", "#A128", "Anthem, AZ 85086"]}, "phone": "+16235518545", "display_phone": "(623) 551-8545", "distance": 15915.27477397141}, {"id": "HMzDTDEuWesBQ9JYIm9YpQ", "alias": "mod-pizza-cave-creek", "name": "MOD Pizza", "image_url": "https://s3-media3.fl.yelpcdn.com/bphoto/KNEJwDm2i9MvM1KUAZL0yg/o.jpg", "is_closed": false, "url": "https://www.yelp.com/biz/mod-pizza-cave-creek?adjust_creative=_XtPN5sB9p2gFalQqwrzYQ&utm_campaign=yelp_api_v3&utm_medium=api_v3_business_search&utm_source=_XtPN5sB9p2gFalQqwrzYQ", "review_count": 75, "categories": [{"alias": "hotdogs", "title": "Fast Food"}, {"alias": "pizza", "title": "Pizza"}], "rating": 3.0, "coordinates": {"latitude": 33.7982896, "longitude": -111.9658698}, "transactions": ["pickup", "delivery"], "price": "$$", "location": {"address1": "5355 E Carefree Hwy", "address2": "Ste 101", "address3": null, "city": "Cave Creek", "zip_code": "85331", "country": "US", "state": "AZ", "display_address": ["5355 E Carefree Hwy", "Ste 101", "Cave Creek, AZ 85331"]}, "phone": "+14806608918", "display_phone": "(480) 660-8918", "distance": 5171.369803100607}, {"id": "8OeHn9KCbICuRBs_XiDDUA", "alias": "buffalo-chip-saloon-and-steakhouse-cave-creek", "name": "Buffalo Chip Saloon & Steakhouse", "image_url": "https://s3-media4.fl.yelpcdn.com/bphoto/wsr46w9-SOLizLbh_YLayg/o.jpg", "is_closed": false, "url": "https://www.yelp.com/biz/buffalo-chip-saloon-and-steakhouse-cave-creek?adjust_creative=_XtPN5sB9p2gFalQqwrzYQ&utm_campaign=yelp_api_v3&utm_medium=api_v3_business_search&utm_source=_XtPN5sB9p2gFalQqwrzYQ", "review_count": 725, "categories": [{"alias": "tradamerican", "title": "American"}, {"alias": "steak", "title": "Steakhouses"}, {"alias": "bbq", "title": "Barbeque"}], "rating": 3.5, "coordinates": {"latitude": 33.8316835, "longitude": -111.9345868}, "transactions": ["delivery"], "price": "$$", "location": {"address1": "6823 E Cave Creek Rd", "address2": "", "address3": "", "city": "Cave Creek", "zip_code": "85331", "country": "US", "state": "AZ", "display_address": ["6823 E Cave Creek Rd", "Cave Creek, AZ 85331"]}, "phone": "+14804889118", "display_phone": "(480) 488-9118", "distance": 3511.804467063177}, {"id": "4EFHLt7UwpX1lzmrD9FtvQ", "alias": "el-pizzeria-sports-bar-and-grill-new-river", "name": "El Pizzeria Sports Bar & Grill", "image_url": "https://s3-media2.fl.yelpcdn.com/bphoto/ZMsDfheOaIzXtKVv0RkcDQ/o.jpg", "is_closed": false, "url": "https://www.yelp.com/biz/el-pizzeria-sports-bar-and-grill-new-river?adjust_creative=_XtPN5sB9p2gFalQqwrzYQ&utm_campaign=yelp_api_v3&utm_medium=api_v3_business_search&utm_source=_XtPN5sB9p2gFalQqwrzYQ", "review_count": 33, "categories": [{"alias": "pizza", "title": "Pizza"}, {"alias": "sportsbars", "title": "Sports Bars"}], "rating": 4.0, "coordinates": {"latitude": 33.9086799, "longitude": -112.1416}, "transactions": [], "price": "$$", "location": {"address1": "46639 N Black Canyon Hwy", "address2": "", "address3": "", "city": "New River", "zip_code": "85087", "country": "US", "state": "AZ", "display_address": ["46639 N Black Canyon Hwy", "New River, AZ 85087"]}, "phone": "+16234651020", "display_phone": "(623) 465-1020", "distance": 17419.653815543534}, {"id": "onXWcMzEpZ5auz7NtPTJdA", "alias": "the-italian-daughter-scottsdale", "name": "The Italian Daughter", "image_url": "https://s3-media2.fl.yelpcdn.com/bphoto/MXPe4V2dQL8PSKSNklfkcw/o.jpg", "is_closed": false, "url": "https://www.yelp.com/biz/the-italian-daughter-scottsdale?adjust_creative=_XtPN5sB9p2gFalQqwrzYQ&utm_campaign=yelp_api_v3&utm_medium=api_v3_business_search&utm_source=_XtPN5sB9p2gFalQqwrzYQ", "review_count": 434, "categories": [{"alias": "italian", "title": "Italian"}], "rating": 4.5, "coordinates": {"latitude": 33.70140214344613, "longitude": -111.92479960620403}, "transactions": [], "price": "$$", "location": {"address1": "23655 N Scottsdale Rd", "address2": "Ste 120", "address3": null, "city": "Scottsdale", "zip_code": "85255", "country": "US", "state": "AZ", "display_address": ["23655 N Scottsdale Rd", "Ste 120", "Scottsdale, AZ 85255"]}, "phone": "+14804046085", "display_phone": "(480) 404-6085", "distance": 16455.966437185387}, {"id": "w_w2b_GRcy_R-bGWXZwKdQ", "alias": "brisams-cave-creek", "name": "Brisam's", "image_url": "https://s3-media4.fl.yelpcdn.com/bphoto/ou5h8SwFt11ha6cCuffxgg/o.jpg", "is_closed": false, "url": "https://www.yelp.com/biz/brisams-cave-creek?adjust_creative=_XtPN5sB9p2gFalQqwrzYQ&utm_campaign=yelp_api_v3&utm_medium=api_v3_business_search&utm_source=_XtPN5sB9p2gFalQqwrzYQ", "review_count": 265, "categories": [{"alias": "tradamerican", "title": "American"}, {"alias": "seafood", "title": "Seafood"}, {"alias": "burgers", "title": "Burgers"}], "rating": 4.0, "coordinates": {"latitude": 33.77119, "longitude": -111.97958}, "transactions": ["delivery"], "price": "$$", "location": {"address1": "4730 E Lone Mountain Rd", "address2": "", "address3": "", "city": "Cave Creek", "zip_code": "85331", "country": "US", "state": "AZ", "display_address": ["4730 E Lone Mountain Rd", "Cave Creek, AZ 85331"]}, "phone": "+14805952202", "display_phone": "(480) 595-2202", "distance": 8257.690990457362}, {"id": "DWWK7M6SsQwz0Dd2pOTOUQ", "alias": "barros-pizza-anthem-2", "name": "Barro's Pizza", "image_url": "https://s3-media1.fl.yelpcdn.com/bphoto/LMMT3eIZ0buBXXrMkCp-2A/o.jpg", "is_closed": false, "url": "https://www.yelp.com/biz/barros-pizza-anthem-2?adjust_creative=_XtPN5sB9p2gFalQqwrzYQ&utm_campaign=yelp_api_v3&utm_medium=api_v3_business_search&utm_source=_XtPN5sB9p2gFalQqwrzYQ", "review_count": 131, "categories": [{"alias": "pizza", "title": "Pizza"}, {"alias": "italian", "title": "Italian"}, {"alias": "sandwiches", "title": "Sandwiches"}], "rating": 3.5, "coordinates": {"latitude": 33.863637, "longitude": -112.137871}, "transactions": ["delivery"], "price": "$", "location": {"address1": "41722 N Gavilan Peak Pkwy", "address2": "Ste 100", "address3": "", "city": "Anthem", "zip_code": "85086", "country": "US", "state": "AZ", "display_address": ["41722 N Gavilan Peak Pkwy", "Ste 100", "Anthem, AZ 85086"]}, "phone": "+16235512800", "display_phone": "(623) 551-2800", "distance": 15714.907628661322}, {"id": "BgAV4IwXkd8gpuyUJX2wnQ", "alias": "uncle-louie-the-restaurant-scottsdale", "name": "Uncle Louie The Restaurant", "image_url": "https://s3-media4.fl.yelpcdn.com/bphoto/rB24kUgxnyG_GYPPGOY4zg/o.jpg", "is_closed": false, "url": "https://www.yelp.com/biz/uncle-louie-the-restaurant-scottsdale?adjust_creative=_XtPN5sB9p2gFalQqwrzYQ&utm_campaign=yelp_api_v3&utm_medium=api_v3_business_search&utm_source=_XtPN5sB9p2gFalQqwrzYQ", "review_count": 206, "categories": [{"alias": "italian", "title": "Italian"}], "rating": 4.0, "coordinates": {"latitude": 33.769442, "longitude": -111.923468}, "transactions": ["delivery"], "price": "$$$", "location": {"address1": "31313 North Scottsdale Rd", "address2": "", "address3": "", "city": "Scottsdale", "zip_code": "85262", "country": "US", "state": "AZ", "display_address": ["31313 North Scottsdale Rd", "Scottsdale, AZ 85262"]}, "phone": "+14805951122", "display_phone": "(480) 595-1122", "distance": 9376.823145958391}, {"id": "2ql9y0f3niYMcq_ZDRCHcw", "alias": "fat-willys-family-sports-grill-cave-creek", "name": "Fat Willy's Family Sports Grill", "image_url": "https://s3-media4.fl.yelpcdn.com/bphoto/76pjMTfmPF0e-DHw7m5A7g/o.jpg", "is_closed": false, "url": "https://www.yelp.com/biz/fat-willys-family-sports-grill-cave-creek?adjust_creative=_XtPN5sB9p2gFalQqwrzYQ&utm_campaign=yelp_api_v3&utm_medium=api_v3_business_search&utm_source=_XtPN5sB9p2gFalQqwrzYQ", "review_count": 70, "categories": [{"alias": "salad", "title": "Salad"}, {"alias": "sportsbars", "title": "Sports Bars"}, {"alias": "pizza", "title": "Pizza"}], "rating": 3.0, "coordinates": {"latitude": 33.79744498786441, "longitude": -111.97875693440436}, "transactions": ["pickup", "delivery"], "location": {"address1": "34406 N Black Mountain Pkwy", "address2": "", "address3": null, "city": "Cave Creek", "zip_code": "85331", "country": "US", "state": "AZ", "display_address": ["34406 N Black Mountain Pkwy", "Cave Creek, AZ 85331"]}, "phone": "+14805344280", "display_phone": "(480) 534-4280", "distance": 5329.279748026121}, {"id": "vMh4madPU3qhNX7P7d8WGA", "alias": "rays-pizza-ii-phoenix", "name": "Ray's Pizza II", "image_url": "https://s3-media3.fl.yelpcdn.com/bphoto/OXugAES7359_QTG3WReixw/o.jpg", "is_closed": false, "url": "https://www.yelp.com/biz/rays-pizza-ii-phoenix?adjust_creative=_XtPN5sB9p2gFalQqwrzYQ&utm_campaign=yelp_api_v3&utm_medium=api_v3_business_search&utm_source=_XtPN5sB9p2gFalQqwrzYQ", "review_count": 38, "categories": [{"alias": "pizza", "title": "Pizza"}], "rating": 4.0, "coordinates": {"latitude": 33.7981941, "longitude": -112.0648931}, "transactions": ["delivery"], "price": "$$", "location": {"address1": "703 E Carefree Hwy", "address2": "Ste 109", "address3": "", "city": "Phoenix", "zip_code": "85085", "country": "US", "state": "AZ", "display_address": ["703 E Carefree Hwy", "Ste 109", "Phoenix, AZ 85085"]}, "phone": "+16234920492", "display_phone": "(623) 492-0492", "distance": 10240.29846646202}, {"id": "lVj_e-aOWokVV-uPzDmUAQ", "alias": "pomodoro-italian-grill-and-seafood-cave-creek-2", "name": "Pomodoro Italian Grill and Seafood", "image_url": "https://s3-media3.fl.yelpcdn.com/bphoto/9GCzpiFWTcoryvLJZ4ZbPg/o.jpg", "is_closed": false, "url": "https://www.yelp.com/biz/pomodoro-italian-grill-and-seafood-cave-creek-2?adjust_creative=_XtPN5sB9p2gFalQqwrzYQ&utm_campaign=yelp_api_v3&utm_medium=api_v3_business_search&utm_source=_XtPN5sB9p2gFalQqwrzYQ", "review_count": 173, "categories": [{"alias": "italian", "title": "Italian"}, {"alias": "seafood", "title": "Seafood"}, {"alias": "cocktailbars", "title": "Cocktail Bars"}], "rating": 4.0, "coordinates": {"latitude": 33.833761, "longitude": -111.936545}, "transactions": [], "price": "$$$", "location": {"address1": "6710 E Cave Creek Rd", "address2": null, "address3": "", "city": "Cave Creek", "zip_code": "85331", "country": "US", "state": "AZ", "display_address": ["6710 E Cave Creek Rd", "Cave Creek, AZ 85331"]}, "phone": "+14805240989", "display_phone": "(480) 524-0989", "distance": 3261.3263000374805}, {"id": "o9IvrLWtTt5lCYqO-uiJLg", "alias": "harolds-corral-cave-creek-2", "name": "Harold's Corral", "image_url": "https://s3-media3.fl.yelpcdn.com/bphoto/wcqM0X0XZm_xlQKdlV_47A/o.jpg", "is_closed": false, "url": "https://www.yelp.com/biz/harolds-corral-cave-creek-2?adjust_creative=_XtPN5sB9p2gFalQqwrzYQ&utm_campaign=yelp_api_v3&utm_medium=api_v3_business_search&utm_source=_XtPN5sB9p2gFalQqwrzYQ", "review_count": 702, "categories": [{"alias": "steak", "title": "Steakhouses"}, {"alias": "tradamerican", "title": "American"}, {"alias": "danceclubs", "title": "Dance Clubs"}], "rating": 3.5, "coordinates": {"latitude": 33.8299674987793, "longitude": -111.932838439941}, "transactions": ["delivery", "pickup"], "price": "$$", "location": {"address1": "6895 E Cave Creek Rd", "address2": "", "address3": "", "city": "Cave Creek", "zip_code": "85331", "country": "US", "state": "AZ", "display_address": ["6895 E Cave Creek Rd", "Cave Creek, AZ 85331"]}, "phone": "+14804881906", "display_phone": "(480) 488-1906", "distance": 3719.1445434616976}, {"id": "Ze7yDRDQKKaD4h308l6iPw", "alias": "humble-bistro-phoenix-2", "name": "Humble Bistro", "image_url": "https://s3-media3.fl.yelpcdn.com/bphoto/O5pZHUkqKNIp5Ygl9aKSQA/o.jpg", "is_closed": false, "url": "https://www.yelp.com/biz/humble-bistro-phoenix-2?adjust_creative=_XtPN5sB9p2gFalQqwrzYQ&utm_campaign=yelp_api_v3&utm_medium=api_v3_business_search&utm_source=_XtPN5sB9p2gFalQqwrzYQ", "review_count": 272, "categories": [{"alias": "italian", "title": "Italian"}, {"alias": "pizza", "title": "Pizza"}, {"alias": "tradamerican", "title": "American"}], "rating": 4.5, "coordinates": {"latitude": 33.67538, "longitude": -111.96403}, "transactions": ["delivery"], "price": "$$", "location": {"address1": "5415 E High St", "address2": "Ste 127", "address3": null, "city": "Phoenix", "zip_code": "85054", "country": "US", "state": "AZ", "display_address": ["5415 E High St", "Ste 127", "Phoenix, AZ 85054"]}, "phone": "+14805022121", "display_phone": "(480) 502-2121", "distance": 18838.53834525219}, {"id": "hMVLNbMU_CfSSNNrAYxBHg", "alias": "osteria-mia-phoenix-2", "name": "Osteria Mia", "image_url": "https://s3-media1.fl.yelpcdn.com/bphoto/lAirUWT3SOOgP4ZAk1JqGg/o.jpg", "is_closed": false, "url": "https://www.yelp.com/biz/osteria-mia-phoenix-2?adjust_creative=_XtPN5sB9p2gFalQqwrzYQ&utm_campaign=yelp_api_v3&utm_medium=api_v3_business_search&utm_source=_XtPN5sB9p2gFalQqwrzYQ", "review_count": 345, "categories": [{"alias": "italian", "title": "Italian"}, {"alias": "wine_bars", "title": "Wine Bars"}, {"alias": "pizza", "title": "Pizza"}], "rating": 4.0, "coordinates": {"latitude": 33.715515, "longitude": -112.113764}, "transactions": ["delivery"], "price": "$$", "location": {"address1": "2530 W Happy Valley Rd", "address2": "Ste 1271", "address3": null, "city": "Phoenix", "zip_code": "85085", "country": "US", "state": "AZ", "display_address": ["2530 W Happy Valley Rd", "Ste 1271", "Phoenix, AZ 85085"]}, "phone": "+16234344604", "display_phone": "(623) 434-4604", "distance": 19614.62811428986}, {"id": "svT1TdTgTd4k4-utMCQU8w", "alias": "liberty-station-scottsdale", "name": "Liberty Station", "image_url": "https://s3-media2.fl.yelpcdn.com/bphoto/r3b4-qRvwLI2g9jRLhX-Ow/o.jpg", "is_closed": false, "url": "https://www.yelp.com/biz/liberty-station-scottsdale?adjust_creative=_XtPN5sB9p2gFalQqwrzYQ&utm_campaign=yelp_api_v3&utm_medium=api_v3_business_search&utm_source=_XtPN5sB9p2gFalQqwrzYQ", "review_count": 503, "categories": [{"alias": "tradamerican", "title": "American"}, {"alias": "comfortfood", "title": "Comfort Food"}, {"alias": "smokehouse", "title": "Smokehouse"}], "rating": 4.0, "coordinates": {"latitude": 33.798828, "longitude": -111.9282913}, "transactions": ["delivery"], "price": "$$", "location": {"address1": "34522 North Scottsdale Rd", "address2": "Ste 180", "address3": "", "city": "Scottsdale", "zip_code": "85266", "country": "US", "state": "AZ", "display_address": ["34522 North Scottsdale Rd", "Ste 180", "Scottsdale, AZ 85266"]}, "phone": "+14805959930", "display_phone": "(480) 595-9930", "distance": 6224.312752000863}, {"id": "x1GM1mzeDx4ARUGKV8n98Q", "alias": "indian-village-cave-creek", "name": "Indian Village", "image_url": "https://s3-media4.fl.yelpcdn.com/bphoto/AKbPiGUux2mO1FnFSybgzw/o.jpg", "is_closed": false, "url": "https://www.yelp.com/biz/indian-village-cave-creek?adjust_creative=_XtPN5sB9p2gFalQqwrzYQ&utm_campaign=yelp_api_v3&utm_medium=api_v3_business_search&utm_source=_XtPN5sB9p2gFalQqwrzYQ", "review_count": 160, "categories": [{"alias": "tradamerican", "title": "American"}, {"alias": "mexican", "title": "Mexican"}], "rating": 4.5, "coordinates": {"latitude": 33.832513011506784, "longitude": -111.93470993525402}, "transactions": ["delivery"], "price": "$", "location": {"address1": "6746 E Cave Creek Rd", "address2": "", "address3": "", "city": "Cave Creek", "zip_code": "85331", "country": "US", "state": "AZ", "display_address": ["6746 E Cave Creek Rd", "Cave Creek, AZ 85331"]}, "phone": "+14804882827", "display_phone": "(480) 488-2827", "distance": 3464.2847596976076}, {"id": "O899B8Smw6Qn8dJWhwhWBg", "alias": "rays-pizza-anthem-2", "name": "Ray's Pizza", "image_url": "https://s3-media2.fl.yelpcdn.com/bphoto/Pj1Gatqai2tZm3URuzUqUg/o.jpg", "is_closed": false, "url": "https://www.yelp.com/biz/rays-pizza-anthem-2?adjust_creative=_XtPN5sB9p2gFalQqwrzYQ&utm_campaign=yelp_api_v3&utm_medium=api_v3_business_search&utm_source=_XtPN5sB9p2gFalQqwrzYQ", "review_count": 67, "categories": [{"alias": "pizza", "title": "Pizza"}], "rating": 4.0, "coordinates": {"latitude": 33.86792432973171, "longitude": -112.14747936672512}, "transactions": [], "price": "$", "location": {"address1": "42211 N 41st Dr", "address2": "Ste 129", "address3": "", "city": "Anthem", "zip_code": "85086", "country": "US", "state": "AZ", "display_address": ["42211 N 41st Dr", "Ste 129", "Anthem, AZ 85086"]}, "phone": "+16235513901", "display_phone": "(623) 551-3901", "distance": 16661.357709967764}, {"id": "6CXbT-93uEsnlg0wSz5YiQ", "alias": "tailgaters-and-il-primo-cave-creek", "name": "Tailgaters and IL Primo", "image_url": "https://s3-media1.fl.yelpcdn.com/bphoto/YtCA2tZyVcCQXYd4TZdlNA/o.jpg", "is_closed": false, "url": "https://www.yelp.com/biz/tailgaters-and-il-primo-cave-creek?adjust_creative=_XtPN5sB9p2gFalQqwrzYQ&utm_campaign=yelp_api_v3&utm_medium=api_v3_business_search&utm_source=_XtPN5sB9p2gFalQqwrzYQ", "review_count": 140, "categories": [{"alias": "sportsbars", "title": "Sports Bars"}, {"alias": "tradamerican", "title": "American"}], "rating": 2.5, "coordinates": {"latitude": 33.742285, "longitude": -111.9784049}, "transactions": ["delivery"], "price": "$$", "location": {"address1": "28234 N Tatum Blvd", "address2": "", "address3": null, "city": "Cave Creek", "zip_code": "85331", "country": "US", "state": "AZ", "display_address": ["28234 N Tatum Blvd", "Cave Creek, AZ 85331"]}, "phone": "+14805857777", "display_phone": "(480) 585-7777", "distance": 11435.181569571187}, {"id": "eMCxf71sTckRZw4GVGwtrw", "alias": "pizza-hut-phoenix-39", "name": "Pizza Hut", "image_url": "https://s3-media3.fl.yelpcdn.com/bphoto/EmVrSGX3ZJ3wWCcOpKmO4w/o.jpg", "is_closed": false, "url": "https://www.yelp.com/biz/pizza-hut-phoenix-39?adjust_creative=_XtPN5sB9p2gFalQqwrzYQ&utm_campaign=yelp_api_v3&utm_medium=api_v3_business_search&utm_source=_XtPN5sB9p2gFalQqwrzYQ", "review_count": 31, "categories": [{"alias": "pizza", "title": "Pizza"}, {"alias": "chicken_wings", "title": "Chicken Wings"}, {"alias": "hotdogs", "title": "Fast Food"}], "rating": 2.5, "coordinates": {"latitude": 33.799092, "longitude": -112.131164}, "transactions": ["pickup", "delivery"], "price": "$", "location": {"address1": "34640 N North Valley Pkwy", "address2": "Ste A3", "address3": "", "city": "Phoenix", "zip_code": "85086", "country": "US", "state": "AZ", "display_address": ["34640 N North Valley Pkwy", "Ste A3", "Phoenix, AZ 85086"]}, "phone": "+16235827909", "display_phone": "(623) 582-7909", "distance": 16001.162527667997}, {"id": "q4U-WZ4A1I_vmDIp9Uq-9w", "alias": "barros-pizza-phoenix-20", "name": "Barro's Pizza", "image_url": "https://s3-media4.fl.yelpcdn.com/bphoto/P3AAn1Ez8SStnY0BchxO4g/o.jpg", "is_closed": false, "url": "https://www.yelp.com/biz/barros-pizza-phoenix-20?adjust_creative=_XtPN5sB9p2gFalQqwrzYQ&utm_campaign=yelp_api_v3&utm_medium=api_v3_business_search&utm_source=_XtPN5sB9p2gFalQqwrzYQ", "review_count": 86, "categories": [{"alias": "pizza", "title": "Pizza"}, {"alias": "italian", "title": "Italian"}, {"alias": "sandwiches", "title": "Sandwiches"}], "rating": 3.5, "coordinates": {"latitude": 33.785749, "longitude": -112.118232}, "transactions": [], "price": "$", "location": {"address1": "2750 W Dove Valley Rd", "address2": "Ste 140", "address3": null, "city": "Phoenix", "zip_code": "85085", "country": "US", "state": "AZ", "display_address": ["2750 W Dove Valley Rd", "Ste 140", "Phoenix, AZ 85085"]}, "phone": "+16232154141", "display_phone": "(623) 215-4141", "distance": 15247.785717015708}, {"id": "ohYgabP6PqkNsF0vnZUxeg", "alias": "janeys-coffee-co-and-bodega-cave-creek-2", "name": "Janey's Coffee Co. & Bodega", "image_url": "https://s3-media2.fl.yelpcdn.com/bphoto/UDIM_w_ofYQEt0457EnR8g/o.jpg", "is_closed": false, "url": "https://www.yelp.com/biz/janeys-coffee-co-and-bodega-cave-creek-2?adjust_creative=_XtPN5sB9p2gFalQqwrzYQ&utm_campaign=yelp_api_v3&utm_medium=api_v3_business_search&utm_source=_XtPN5sB9p2gFalQqwrzYQ", "review_count": 271, "categories": [{"alias": "bars", "title": "Bars"}, {"alias": "cafes", "title": "Cafes"}, {"alias": "musicvenues", "title": "Music Venues"}], "rating": 4.5, "coordinates": {"latitude": 33.83363, "longitude": -111.93865}, "transactions": ["delivery"], "price": "$$", "location": {"address1": "6602 E Cave Creek Rd", "address2": "", "address3": "", "city": "Cave Creek", "zip_code": "85331", "country": "US", "state": "AZ", "display_address": ["6602 E Cave Creek Rd", "Cave Creek, AZ 85331"]}, "phone": "+14805756885", "display_phone": "(480) 575-6885", "distance": 3087.277323095097}, {"id": "iN6e7ugfbOUfbsqTeQJfLA", "alias": "the-creek-patio-grill-cave-creek", "name": "The Creek Patio Grill", "image_url": "https://s3-media3.fl.yelpcdn.com/bphoto/auQ8AuFy9Wf1SqVgdJp4iA/o.jpg", "is_closed": false, "url": "https://www.yelp.com/biz/the-creek-patio-grill-cave-creek?adjust_creative=_XtPN5sB9p2gFalQqwrzYQ&utm_campaign=yelp_api_v3&utm_medium=api_v3_business_search&utm_source=_XtPN5sB9p2gFalQqwrzYQ", "review_count": 568, "categories": [{"alias": "tradamerican", "title": "American"}, {"alias": "wine_bars", "title": "Wine Bars"}, {"alias": "cocktailbars", "title": "Cocktail Bars"}], "rating": 4.0, "coordinates": {"latitude": 33.742285, "longitude": -111.979619}, "transactions": ["pickup", "delivery"], "price": "$$", "location": {"address1": "28244 N Tatum Blvd", "address2": null, "address3": "", "city": "Cave Creek", "zip_code": "85331", "country": "US", "state": "AZ", "display_address": ["28244 N Tatum Blvd", "Cave Creek, AZ 85331"]}, "phone": "+14805387910", "display_phone": "(480) 538-7910", "distance": 11429.947802901514}, {"id": "mFmmOKdcwFrDqXKaew0ahw", "alias": "streets-of-new-york-phoenix-10", "name": "Streets of New York", "image_url": "https://s3-media2.fl.yelpcdn.com/bphoto/VNSauGFH9vqliwmso6l22Q/o.jpg", "is_closed": false, "url": "https://www.yelp.com/biz/streets-of-new-york-phoenix-10?adjust_creative=_XtPN5sB9p2gFalQqwrzYQ&utm_campaign=yelp_api_v3&utm_medium=api_v3_business_search&utm_source=_XtPN5sB9p2gFalQqwrzYQ", "review_count": 146, "categories": [{"alias": "pizza", "title": "Pizza"}, {"alias": "italian", "title": "Italian"}, {"alias": "sandwiches", "title": "Sandwiches"}], "rating": 3.5, "coordinates": {"latitude": 33.7976068629891, "longitude": -112.120271921426}, "transactions": ["pickup", "delivery"], "price": "$$", "location": {"address1": "2805 West Carefree Highway", "address2": null, "address3": null, "city": "Phoenix", "zip_code": "85086", "country": "US", "state": "AZ", "display_address": ["2805 West Carefree Highway", "Phoenix, AZ 85086"]}, "phone": "+16235870177", "display_phone": "(623) 587-0177", "distance": 14904.38496324208}, {"id": "u9R0_pvEkl7QGPJYH3j1sg", "alias": "times-square-deer-valley-phoenix-2", "name": "Times Square \u2013 Deer Valley", "image_url": "https://s3-media3.fl.yelpcdn.com/bphoto/xXMNVyZFEbx8BKKj3X8uHg/o.jpg", "is_closed": false, "url": "https://www.yelp.com/biz/times-square-deer-valley-phoenix-2?adjust_creative=_XtPN5sB9p2gFalQqwrzYQ&utm_campaign=yelp_api_v3&utm_medium=api_v3_business_search&utm_source=_XtPN5sB9p2gFalQqwrzYQ", "review_count": 681, "categories": [{"alias": "pizza", "title": "Pizza"}, {"alias": "italian", "title": "Italian"}, {"alias": "breakfast_brunch", "title": "Breakfast & Brunch"}], "rating": 4.0, "coordinates": {"latitude": 33.684186, "longitude": -112.116342}, "transactions": ["delivery"], "price": "$$", "location": {"address1": "2602 W Deer Valley Rd", "address2": "", "address3": "", "city": "Phoenix", "zip_code": "85027", "country": "US", "state": "AZ", "display_address": ["2602 W Deer Valley Rd", "Phoenix, AZ 85027"]}, "phone": "+16235828866", "display_phone": "(623) 582-8866", "distance": 22433.389879322327}, {"id": "ZIGBSvKwMJXaL8pl7Ufsgg", "alias": "sfizio-modern-italian-kitchen-phoenix", "name": "Sfizio Modern Italian Kitchen", "image_url": "https://s3-media4.fl.yelpcdn.com/bphoto/7HAWHqVMreNQ9i2pUZDLAQ/o.jpg", "is_closed": false, "url": "https://www.yelp.com/biz/sfizio-modern-italian-kitchen-phoenix?adjust_creative=_XtPN5sB9p2gFalQqwrzYQ&utm_campaign=yelp_api_v3&utm_medium=api_v3_business_search&utm_source=_XtPN5sB9p2gFalQqwrzYQ", "review_count": 195, "categories": [{"alias": "italian", "title": "Italian"}, {"alias": "pizza", "title": "Pizza"}, {"alias": "cocktailbars", "title": "Cocktail Bars"}], "rating": 4.5, "coordinates": {"latitude": 33.67802158795569, "longitude": -111.97861907747584}, "transactions": [], "price": "$$", "location": {"address1": "21050 N Tatum Blvd", "address2": "Ste 110", "address3": null, "city": "Phoenix", "zip_code": "85050", "country": "US", "state": "AZ", "display_address": ["21050 N Tatum Blvd", "Ste 110", "Phoenix, AZ 85050"]}, "phone": "+14806878107", "display_phone": "(480) 687-8107", "distance": 18555.602918203385}, {"id": "umbYgQqjq4GWoPCNRiIQzg", "alias": "keelers-neighborhood-steakhouse-carefree", "name": "Keelers Neighborhood Steakhouse", "image_url": "https://s3-media3.fl.yelpcdn.com/bphoto/RLQoEQyufaoke-TUE1vEBQ/o.jpg", "is_closed": false, "url": "https://www.yelp.com/biz/keelers-neighborhood-steakhouse-carefree?adjust_creative=_XtPN5sB9p2gFalQqwrzYQ&utm_campaign=yelp_api_v3&utm_medium=api_v3_business_search&utm_source=_XtPN5sB9p2gFalQqwrzYQ", "review_count": 309, "categories": [{"alias": "steak", "title": "Steakhouses"}, {"alias": "seafood", "title": "Seafood"}, {"alias": "cocktailbars", "title": "Cocktail Bars"}], "rating": 4.0, "coordinates": {"latitude": 33.82611658861461, "longitude": -111.9232862170565}, "transactions": ["delivery"], "location": {"address1": "7212 E Ho Hum Rd", "address2": "", "address3": null, "city": "Carefree", "zip_code": "85377", "country": "US", "state": "AZ", "display_address": ["7212 E Ho Hum Rd", "Carefree, AZ 85377"]}, "phone": "+16023744784", "display_phone": "(602) 374-4784", "distance": 4719.94792023174}, {"id": "g_5Vc87LzE40nfhFpMOrtA", "alias": "dominos-pizza-phoenix-47", "name": "Domino's Pizza", "image_url": "https://s3-media3.fl.yelpcdn.com/bphoto/_UbHAzXf-1aMXlngddCFIw/o.jpg", "is_closed": false, "url": "https://www.yelp.com/biz/dominos-pizza-phoenix-47?adjust_creative=_XtPN5sB9p2gFalQqwrzYQ&utm_campaign=yelp_api_v3&utm_medium=api_v3_business_search&utm_source=_XtPN5sB9p2gFalQqwrzYQ", "review_count": 28, "categories": [{"alias": "pizza", "title": "Pizza"}, {"alias": "chicken_wings", "title": "Chicken Wings"}, {"alias": "sandwiches", "title": "Sandwiches"}], "rating": 3.0, "coordinates": {"latitude": 33.844607770136, "longitude": -112.13457200384}, "transactions": [], "price": "$", "location": {"address1": "39506 N Daisy Mountain Dr", "address2": "", "address3": "", "city": "Phoenix", "zip_code": "85086", "country": "US", "state": "AZ", "display_address": ["39506 N Daisy Mountain Dr", "Phoenix, AZ 85086"]}, "phone": "+16235511515", "display_phone": "(623) 551-1515", "distance": 15270.46254792748}, {"id": "XvYtp_rwIWdd382zbQ6XjA", "alias": "jojos-pizza-and-family-restaurant-glendale-2", "name": "Jojo's Pizza & Family Restaurant", "image_url": "https://s3-media4.fl.yelpcdn.com/bphoto/Nsnm1z_1VlFkXVTj5du5Ug/o.jpg", "is_closed": false, "url": "https://www.yelp.com/biz/jojos-pizza-and-family-restaurant-glendale-2?adjust_creative=_XtPN5sB9p2gFalQqwrzYQ&utm_campaign=yelp_api_v3&utm_medium=api_v3_business_search&utm_source=_XtPN5sB9p2gFalQqwrzYQ", "review_count": 224, "categories": [{"alias": "pizza", "title": "Pizza"}, {"alias": "italian", "title": "Italian"}], "rating": 4.0, "coordinates": {"latitude": 33.69871488424595, "longitude": -112.14166524110458}, "transactions": ["delivery"], "price": "$$", "location": {"address1": "23425 N 39th Dr", "address2": "Ste 110", "address3": "", "city": "Glendale", "zip_code": "85310", "country": "US", "state": "AZ", "display_address": ["23425 N 39th Dr", "Ste 110", "Glendale, AZ 85310"]}, "phone": "+16235167770", "display_phone": "(623) 516-7770", "distance": 22750.977631191407}, {"id": "3iOTXLf0V8p7TulVQ6dlnA", "alias": "mr-gyros-anthem", "name": "Mr Gyros", "image_url": "https://s3-media2.fl.yelpcdn.com/bphoto/VQoRZFHV9lKU4nwXsfMdXQ/o.jpg", "is_closed": false, "url": "https://www.yelp.com/biz/mr-gyros-anthem?adjust_creative=_XtPN5sB9p2gFalQqwrzYQ&utm_campaign=yelp_api_v3&utm_medium=api_v3_business_search&utm_source=_XtPN5sB9p2gFalQqwrzYQ", "review_count": 194, "categories": [{"alias": "greek", "title": "Greek"}], "rating": 4.5, "coordinates": {"latitude": 33.86407772959692, "longitude": -112.13932874110202}, "transactions": ["delivery"], "price": "$", "location": {"address1": "3655 W Anthem Way", "address2": "", "address3": "", "city": "Anthem", "zip_code": "85086", "country": "US", "state": "AZ", "display_address": ["3655 W Anthem Way", "Anthem, AZ 85086"]}, "phone": "+16235516458", "display_phone": "(623) 551-6458", "distance": 15854.858259361217}, {"id": "ePuf-SdhVzNojTRRlu8J6w", "alias": "mountain-view-pub-cave-creek", "name": "Mountain View Pub", "image_url": "https://s3-media4.fl.yelpcdn.com/bphoto/Icaab8QorgxMbBLImL4qJQ/o.jpg", "is_closed": false, "url": "https://www.yelp.com/biz/mountain-view-pub-cave-creek?adjust_creative=_XtPN5sB9p2gFalQqwrzYQ&utm_campaign=yelp_api_v3&utm_medium=api_v3_business_search&utm_source=_XtPN5sB9p2gFalQqwrzYQ", "review_count": 278, "categories": [{"alias": "newamerican", "title": "New American"}, {"alias": "irish_pubs", "title": "Irish Pub"}], "rating": 2.5, "coordinates": {"latitude": 33.8290519259577, "longitude": -111.929054496887}, "transactions": ["delivery"], "price": "$$", "location": {"address1": "7033 E Cave Creek Rd", "address2": "", "address3": null, "city": "Cave Creek", "zip_code": "85331", "country": "US", "state": "AZ", "display_address": ["7033 E Cave Creek Rd", "Cave Creek, AZ 85331"]}, "phone": "+14805757782", "display_phone": "(480) 575-7782", "distance": 4098.40965815333}, {"id": "ujn3O4XqzTKNdsSCXcruYw", "alias": "the-stillery-phoenix-2", "name": "The Stillery", "image_url": "https://s3-media3.fl.yelpcdn.com/bphoto/eT6PuCxNeH8Z_s46hxw2xg/o.jpg", "is_closed": false, "url": "https://www.yelp.com/biz/the-stillery-phoenix-2?adjust_creative=_XtPN5sB9p2gFalQqwrzYQ&utm_campaign=yelp_api_v3&utm_medium=api_v3_business_search&utm_source=_XtPN5sB9p2gFalQqwrzYQ", "review_count": 210, "categories": [{"alias": "musicvenues", "title": "Music Venues"}, {"alias": "bars", "title": "Bars"}, {"alias": "newamerican", "title": "New American"}], "rating": 3.5, "coordinates": {"latitude": 33.712432829921156, "longitude": -112.11228970438242}, "transactions": [], "price": "$$", "location": {"address1": "2501 W Happy Valley Rd", "address2": "Ste 12", "address3": null, "city": "Phoenix", "zip_code": "85085", "country": "US", "state": "AZ", "display_address": ["2501 W Happy Valley Rd", "Ste 12", "Phoenix, AZ 85085"]}, "phone": "+16232486595", "display_phone": "(623) 248-6595", "distance": 19778.655562089105}, {"id": "lnBEu9kiSEpicdyC3FxZjQ", "alias": "fly-bye-phoenix-5", "name": "Fly Bye", "image_url": "https://s3-media2.fl.yelpcdn.com/bphoto/pxazPiiCBauAvspdBQ3m_A/o.jpg", "is_closed": false, "url": "https://www.yelp.com/biz/fly-bye-phoenix-5?adjust_creative=_XtPN5sB9p2gFalQqwrzYQ&utm_campaign=yelp_api_v3&utm_medium=api_v3_business_search&utm_source=_XtPN5sB9p2gFalQqwrzYQ", "review_count": 155, "categories": [{"alias": "pizza", "title": "Pizza"}, {"alias": "chickenshop", "title": "Chicken Shop"}, {"alias": "salad", "title": "Salad"}], "rating": 4.0, "coordinates": {"latitude": 33.6781490915225, "longitude": -111.97488686802556}, "transactions": [], "price": "$$", "location": {"address1": "21001 N Tatum Blvd", "address2": "Ste 74-1557", "address3": null, "city": "Phoenix", "zip_code": "85050", "country": "US", "state": "AZ", "display_address": ["21001 N Tatum Blvd", "Ste 74-1557", "Phoenix, AZ 85050"]}, "phone": "+16023515150", "display_phone": "(602) 351-5150", "distance": 18528.48349377617}, {"id": "qk6GznRuKZZIzGuFN8YTTw", "alias": "fat-freddys-catering-phoenix", "name": "Fat Freddy's Catering", "image_url": "https://s3-media1.fl.yelpcdn.com/bphoto/99QNVMAQzyeC--kYGBuqyg/o.jpg", "is_closed": false, "url": "https://www.yelp.com/biz/fat-freddys-catering-phoenix?adjust_creative=_XtPN5sB9p2gFalQqwrzYQ&utm_campaign=yelp_api_v3&utm_medium=api_v3_business_search&utm_source=_XtPN5sB9p2gFalQqwrzYQ", "review_count": 92, "categories": [{"alias": "catering", "title": "Caterers"}], "rating": 5.0, "coordinates": {"latitude": 33.681681251680246, "longitude": -112.10667210886136}, "transactions": ["delivery"], "location": {"address1": "2201 W Melinda Ln", "address2": "Ste 3", "address3": "", "city": "Phoenix", "zip_code": "85027", "country": "US", "state": "AZ", "display_address": ["2201 W Melinda Ln", "Ste 3", "Phoenix, AZ 85027"]}, "phone": "+16235804653", "display_phone": "(623) 580-4653", "distance": 22137.663890155287}, {"id": "PmkXtqIcjQGpNShB8yTSrA", "alias": "rosatis-pizza-scottsdale-3", "name": "Rosati's Pizza", "image_url": "https://s3-media3.fl.yelpcdn.com/bphoto/vpiDA8vxxAnALf5uKgevbg/o.jpg", "is_closed": false, "url": "https://www.yelp.com/biz/rosatis-pizza-scottsdale-3?adjust_creative=_XtPN5sB9p2gFalQqwrzYQ&utm_campaign=yelp_api_v3&utm_medium=api_v3_business_search&utm_source=_XtPN5sB9p2gFalQqwrzYQ", "review_count": 138, "categories": [{"alias": "pizza", "title": "Pizza"}, {"alias": "sportsbars", "title": "Sports Bars"}, {"alias": "italian", "title": "Italian"}], "rating": 2.5, "coordinates": {"latitude": 33.741775, "longitude": -111.843846}, "transactions": ["pickup", "delivery"], "price": "$$", "location": {"address1": "10989 E Dynamite Blvd", "address2": "Ste 102", "address3": "", "city": "Scottsdale", "zip_code": "85262", "country": "US", "state": "AZ", "display_address": ["10989 E Dynamite Blvd", "Ste 102", "Scottsdale, AZ 85262"]}, "phone": "+14805132552", "display_phone": "(480) 513-2552", "distance": 16285.859887622675}, {"id": "9PZViPPXgOrk7rY1-K1tZg", "alias": "streets-of-new-york-phoenix-6", "name": "Streets of New York", "image_url": "https://s3-media3.fl.yelpcdn.com/bphoto/aST_pFFlxNhbkHA6D1ZDOg/o.jpg", "is_closed": false, "url": "https://www.yelp.com/biz/streets-of-new-york-phoenix-6?adjust_creative=_XtPN5sB9p2gFalQqwrzYQ&utm_campaign=yelp_api_v3&utm_medium=api_v3_business_search&utm_source=_XtPN5sB9p2gFalQqwrzYQ", "review_count": 148, "categories": [{"alias": "pizza", "title": "Pizza"}, {"alias": "salad", "title": "Salad"}, {"alias": "chicken_wings", "title": "Chicken Wings"}], "rating": 3.5, "coordinates": {"latitude": 33.7122387194897, "longitude": -112.102142572402}, "transactions": ["pickup", "delivery"], "price": "$$", "location": {"address1": "1985 West Happy Valley Rd", "address2": "", "address3": "", "city": "Phoenix", "zip_code": "85310", "country": "US", "state": "AZ", "display_address": ["1985 West Happy Valley Rd", "Phoenix, AZ 85310"]}, "phone": "+16235828500", "display_phone": "(623) 582-8500", "distance": 19180.946645066}, {"id": "471fUA9qM7oQtVmGdf_Y9g", "alias": "dominos-scottsdale-2", "name": "Dominos", "image_url": "https://s3-media1.fl.yelpcdn.com/bphoto/zruYokPltpnxQbhyT-8W4Q/o.jpg", "is_closed": false, "url": "https://www.yelp.com/biz/dominos-scottsdale-2?adjust_creative=_XtPN5sB9p2gFalQqwrzYQ&utm_campaign=yelp_api_v3&utm_medium=api_v3_business_search&utm_source=_XtPN5sB9p2gFalQqwrzYQ", "review_count": 27, "categories": [{"alias": "chicken_wings", "title": "Chicken Wings"}, {"alias": "pizza", "title": "Pizza"}, {"alias": "sandwiches", "title": "Sandwiches"}], "rating": 2.5, "coordinates": {"latitude": 33.7799693707262, "longitude": -111.925011532843}, "transactions": [], "price": "$", "location": {"address1": "32409 N Scottsdale Rd", "address2": "Ste 105", "address3": null, "city": "Scottsdale", "zip_code": "85266", "country": "US", "state": "AZ", "display_address": ["32409 N Scottsdale Rd", "Ste 105", "Scottsdale, AZ 85266"]}, "phone": "+14805956000", "display_phone": "(480) 595-6000", "distance": 8277.224095682861}, {"id": "BjbokieOGk2CCq2t8wV6MA", "alias": "spiga-cucina-italiana-scottsdale", "name": "Spiga Cucina Italiana", "image_url": "https://s3-media1.fl.yelpcdn.com/bphoto/we-y60qMAqXPjaMF55iYzA/o.jpg", "is_closed": false, "url": "https://www.yelp.com/biz/spiga-cucina-italiana-scottsdale?adjust_creative=_XtPN5sB9p2gFalQqwrzYQ&utm_campaign=yelp_api_v3&utm_medium=api_v3_business_search&utm_source=_XtPN5sB9p2gFalQqwrzYQ", "review_count": 834, "categories": [{"alias": "italian", "title": "Italian"}, {"alias": "mediterranean", "title": "Mediterranean"}, {"alias": "pizza", "title": "Pizza"}], "rating": 4.0, "coordinates": {"latitude": 33.698999, "longitude": -111.918495}, "transactions": ["delivery"], "price": "$$", "location": {"address1": "7500 E Pinnacle Peak Rd", "address2": null, "address3": "", "city": "Scottsdale", "zip_code": "85255", "country": "US", "state": "AZ", "display_address": ["7500 E Pinnacle Peak Rd", "Scottsdale, AZ 85255"]}, "phone": "+14805139000", "display_phone": "(480) 513-9000", "distance": 16867.495110549644}, {"id": "2jrMJYBfVv_LcCMJ0Z9RzQ", "alias": "kobe-fondue-and-ramen-new-river", "name": "KOBE Fondue & Ramen", "image_url": "https://s3-media2.fl.yelpcdn.com/bphoto/FL3fQAeb3W8SQ1dOMZaI-A/o.jpg", "is_closed": false, "url": "https://www.yelp.com/biz/kobe-fondue-and-ramen-new-river?adjust_creative=_XtPN5sB9p2gFalQqwrzYQ&utm_campaign=yelp_api_v3&utm_medium=api_v3_business_search&utm_source=_XtPN5sB9p2gFalQqwrzYQ", "review_count": 111, "categories": [{"alias": "ramen", "title": "Ramen"}, {"alias": "desserts", "title": "Desserts"}, {"alias": "soulfood", "title": "Soul Food"}], "rating": 4.5, "coordinates": {"latitude": 33.863892490462476, "longitude": -112.13863040012484}, "transactions": ["pickup", "delivery"], "price": "$$", "location": {"address1": "3655 W Anthem Way", "address2": "", "address3": null, "city": "New River", "zip_code": "85086", "country": "US", "state": "AZ", "display_address": ["3655 W Anthem Way", "New River, AZ 85086"]}, "phone": "+16234402223", "display_phone": "(623) 440-2223", "distance": 15788.193052994919}, {"id": "v2tjswIV3e0c8o7_7MwYmg", "alias": "mellow-mushroom-phoenix-high-street-phoenix", "name": "Mellow Mushroom Phoenix - High Street", "image_url": "https://s3-media4.fl.yelpcdn.com/bphoto/lwngPNctQ78H5xhuWv6_PQ/o.jpg", "is_closed": false, "url": "https://www.yelp.com/biz/mellow-mushroom-phoenix-high-street-phoenix?adjust_creative=_XtPN5sB9p2gFalQqwrzYQ&utm_campaign=yelp_api_v3&utm_medium=api_v3_business_search&utm_source=_XtPN5sB9p2gFalQqwrzYQ", "review_count": 522, "categories": [{"alias": "pizza", "title": "Pizza"}, {"alias": "bars", "title": "Bars"}, {"alias": "sandwiches", "title": "Sandwiches"}], "rating": 3.5, "coordinates": {"latitude": 33.67611138446889, "longitude": -111.9651632771195}, "transactions": ["pickup", "delivery"], "price": "$$", "location": {"address1": "5350 E High St", "address2": "Ste 115", "address3": "", "city": "Phoenix", "zip_code": "85054", "country": "US", "state": "AZ", "display_address": ["5350 E High St", "Ste 115", "Phoenix, AZ 85054"]}, "phone": "+14808890999", "display_phone": "(480) 889-0999", "distance": 18751.422785799674}, {"id": "YqSfqgdWtCv3XimQ3r4I6w", "alias": "confluence-carefree", "name": "Confluence", "image_url": "https://s3-media3.fl.yelpcdn.com/bphoto/Um45dFM69xd9p_fukbCIMQ/o.jpg", "is_closed": false, "url": "https://www.yelp.com/biz/confluence-carefree?adjust_creative=_XtPN5sB9p2gFalQqwrzYQ&utm_campaign=yelp_api_v3&utm_medium=api_v3_business_search&utm_source=_XtPN5sB9p2gFalQqwrzYQ", "review_count": 113, "categories": [{"alias": "newamerican", "title": "New American"}], "rating": 4.0, "coordinates": {"latitude": 33.8206206820033, "longitude": -111.923930773086}, "transactions": ["delivery"], "location": {"address1": "36889 N Tom Darlington Dr", "address2": null, "address3": null, "city": "Carefree", "zip_code": "85377", "country": "US", "state": "AZ", "display_address": ["36889 N Tom Darlington Dr", "Carefree, AZ 85377"]}, "phone": "+14804889796", "display_phone": "(480) 488-9796", "distance": 4967.723328875845}, {"id": "knyRhFaM4Bwa8AldEbOiqw", "alias": "barros-pizza-scottsdale", "name": "Barro's Pizza", "image_url": "https://s3-media2.fl.yelpcdn.com/bphoto/dTV9i3qsCBSHYkuX5_oD6w/o.jpg", "is_closed": false, "url": "https://www.yelp.com/biz/barros-pizza-scottsdale?adjust_creative=_XtPN5sB9p2gFalQqwrzYQ&utm_campaign=yelp_api_v3&utm_medium=api_v3_business_search&utm_source=_XtPN5sB9p2gFalQqwrzYQ", "review_count": 140, "categories": [{"alias": "pizza", "title": "Pizza"}, {"alias": "italian", "title": "Italian"}, {"alias": "sandwiches", "title": "Sandwiches"}], "rating": 3.5, "coordinates": {"latitude": 33.6745510592213, "longitude": -111.923555149331}, "transactions": ["delivery"], "price": "$", "location": {"address1": "20701 N Scottsdale Rd", "address2": "Ste 101", "address3": "", "city": "Scottsdale", "zip_code": "85255", "country": "US", "state": "AZ", "display_address": ["20701 N Scottsdale Rd", "Ste 101", "Scottsdale, AZ 85255"]}, "phone": "+14805138393", "display_phone": "(480) 513-8393", "distance": 19386.431431549026}, {"id": "LH8S1sUwxg2_TotePOFLvg", "alias": "lorenzos-italian-kitchen-scottsdale", "name": "Lorenzo's Italian Kitchen", "image_url": "https://s3-media2.fl.yelpcdn.com/bphoto/YlLR5B437xHNWlF9wdw9gw/o.jpg", "is_closed": false, "url": "https://www.yelp.com/biz/lorenzos-italian-kitchen-scottsdale?adjust_creative=_XtPN5sB9p2gFalQqwrzYQ&utm_campaign=yelp_api_v3&utm_medium=api_v3_business_search&utm_source=_XtPN5sB9p2gFalQqwrzYQ", "review_count": 374, "categories": [{"alias": "italian", "title": "Italian"}, {"alias": "pizza", "title": "Pizza"}], "rating": 3.5, "coordinates": {"latitude": 33.700637, "longitude": -111.924274}, "transactions": ["pickup", "delivery"], "price": "$", "location": {"address1": "23623 N Scottsdale Rd", "address2": "Ste D4", "address3": "", "city": "Scottsdale", "zip_code": "85255", "country": "US", "state": "AZ", "display_address": ["23623 N Scottsdale Rd", "Ste D4", "Scottsdale, AZ 85255"]}, "phone": "+14805021111", "display_phone": "(480) 502-1111", "distance": 16550.502189773433}, {"id": "M6bgRe_7Xu7_kHL1ebjiOw", "alias": "by-the-bucket-anthem-phoenix", "name": "By the Bucket Anthem", "image_url": "https://s3-media2.fl.yelpcdn.com/bphoto/hNf4Z4XhWs_s9kV9VPMl7Q/o.jpg", "is_closed": false, "url": "https://www.yelp.com/biz/by-the-bucket-anthem-phoenix?adjust_creative=_XtPN5sB9p2gFalQqwrzYQ&utm_campaign=yelp_api_v3&utm_medium=api_v3_business_search&utm_source=_XtPN5sB9p2gFalQqwrzYQ", "review_count": 14, "categories": [{"alias": "italian", "title": "Italian"}], "rating": 4.5, "coordinates": {"latitude": 33.858129393525765, "longitude": -112.11232937150912}, "transactions": ["pickup", "delivery"], "location": {"address1": "41111 Daisy Mountain Dr", "address2": "Ste 113", "address3": "", "city": "Phoenix", "zip_code": "85086", "country": "US", "state": "AZ", "display_address": ["41111 Daisy Mountain Dr", "Ste 113", "Phoenix, AZ 85086"]}, "phone": "+16232486685", "display_phone": "(623) 248-6685", "distance": 13299.173970800899}, {"id": "c33m1IMz1N7S1-sqTbsqRA", "alias": "rays-pizza-phoenix-10", "name": "Ray's Pizza", "image_url": "https://s3-media3.fl.yelpcdn.com/bphoto/pGMWVzGWx7MhkirLExZ2AA/o.jpg", "is_closed": false, "url": "https://www.yelp.com/biz/rays-pizza-phoenix-10?adjust_creative=_XtPN5sB9p2gFalQqwrzYQ&utm_campaign=yelp_api_v3&utm_medium=api_v3_business_search&utm_source=_XtPN5sB9p2gFalQqwrzYQ", "review_count": 62, "categories": [{"alias": "pizza", "title": "Pizza"}, {"alias": "italian", "title": "Italian"}, {"alias": "sandwiches", "title": "Sandwiches"}], "rating": 4.0, "coordinates": {"latitude": 33.68324579239288, "longitude": -112.098657266667}, "transactions": ["pickup", "delivery"], "price": "$$", "location": {"address1": "1855 W Deer Valley Rd", "address2": "", "address3": null, "city": "Phoenix", "zip_code": "85027", "country": "US", "state": "AZ", "display_address": ["1855 W Deer Valley Rd", "Phoenix, AZ 85027"]}, "phone": "+16235811274", "display_phone": "(623) 581-1274", "distance": 21575.858315253983}, {"id": "SgGbqDAybVqx7CsqIQFppw", "alias": "brunch-kitchen-and-cocktails-cave-creek", "name": "Brunch - Kitchen & Cocktails", "image_url": "https://s3-media1.fl.yelpcdn.com/bphoto/AKbzNVhmX1ny9qwGue9OLQ/o.jpg", "is_closed": false, "url": "https://www.yelp.com/biz/brunch-kitchen-and-cocktails-cave-creek?adjust_creative=_XtPN5sB9p2gFalQqwrzYQ&utm_campaign=yelp_api_v3&utm_medium=api_v3_business_search&utm_source=_XtPN5sB9p2gFalQqwrzYQ", "review_count": 76, "categories": [{"alias": "breakfast_brunch", "title": "Breakfast & Brunch"}, {"alias": "burgers", "title": "Burgers"}, {"alias": "sandwiches", "title": "Sandwiches"}], "rating": 4.5, "coordinates": {"latitude": 33.830241001890975, "longitude": -111.93146998671357}, "transactions": [], "location": {"address1": "6920 E Cave Creek Rd", "address2": null, "address3": "", "city": "Cave Creek", "zip_code": "85331", "country": "US", "state": "AZ", "display_address": ["6920 E Cave Creek Rd", "Cave Creek, AZ 85331"]}, "phone": "+14804882068", "display_phone": "(480) 488-2068", "distance": 3840.3308995109674}, {"id": "zU_7J5jG5hJJznmL299FUQ", "alias": "papa-murphys-anthem", "name": "Papa Murphy's", "image_url": "https://s3-media1.fl.yelpcdn.com/bphoto/9MLPmML0wcUTo6ulXep-Zw/o.jpg", "is_closed": false, "url": "https://www.yelp.com/biz/papa-murphys-anthem?adjust_creative=_XtPN5sB9p2gFalQqwrzYQ&utm_campaign=yelp_api_v3&utm_medium=api_v3_business_search&utm_source=_XtPN5sB9p2gFalQqwrzYQ", "review_count": 27, "categories": [{"alias": "pizza", "title": "Pizza"}], "rating": 3.5, "coordinates": {"latitude": 33.865144, "longitude": -112.13911}, "transactions": ["pickup", "delivery"], "price": "$$", "location": {"address1": "3655 W Anthem Way B-123", "address2": "", "address3": "", "city": "Anthem", "zip_code": "85086", "country": "US", "state": "AZ", "display_address": ["3655 W Anthem Way B-123", "Anthem, AZ 85086"]}, "phone": "+16235515111", "display_phone": "(623) 551-5111", "distance": 15851.307088053305}, {"id": "7MeMGh0SUlF-GuTyruwtcw", "alias": "mellow-mushroom-phoenix-phoenix-2", "name": "Mellow Mushroom Phoenix", "image_url": "https://s3-media3.fl.yelpcdn.com/bphoto/bH_kEa3jVSdtM665B-bG3A/o.jpg", "is_closed": false, "url": "https://www.yelp.com/biz/mellow-mushroom-phoenix-phoenix-2?adjust_creative=_XtPN5sB9p2gFalQqwrzYQ&utm_campaign=yelp_api_v3&utm_medium=api_v3_business_search&utm_source=_XtPN5sB9p2gFalQqwrzYQ", "review_count": 1051, "categories": [{"alias": "pizza", "title": "Pizza"}, {"alias": "bars", "title": "Bars"}, {"alias": "sandwiches", "title": "Sandwiches"}], "rating": 3.5, "coordinates": {"latitude": 33.71345390893902, "longitude": -112.11396957279231}, "transactions": ["pickup", "delivery"], "price": "$$", "location": {"address1": "2490 W Happy Valley Rd", "address2": "", "address3": "", "city": "Phoenix", "zip_code": "85085", "country": "US", "state": "AZ", "display_address": ["2490 W Happy Valley Rd", "Phoenix, AZ 85085"]}, "phone": "+16235801111", "display_phone": "(623) 580-1111", "distance": 19798.888536589067}, {"id": "B9pfWGhQeGokSDHFpLcEbQ", "alias": "raven-gastropub-scottsdale", "name": "Raven Gastropub", "image_url": "https://s3-media3.fl.yelpcdn.com/bphoto/RgZ-Cd64TPx0WWREUT2QDQ/o.jpg", "is_closed": false, "url": "https://www.yelp.com/biz/raven-gastropub-scottsdale?adjust_creative=_XtPN5sB9p2gFalQqwrzYQ&utm_campaign=yelp_api_v3&utm_medium=api_v3_business_search&utm_source=_XtPN5sB9p2gFalQqwrzYQ", "review_count": 239, "categories": [{"alias": "gastropubs", "title": "Gastropubs"}, {"alias": "bars", "title": "Bars"}, {"alias": "comfortfood", "title": "Comfort Food"}], "rating": 4.5, "coordinates": {"latitude": 33.69893, "longitude": -111.8888}, "transactions": ["delivery"], "price": "$$", "location": {"address1": "8900 E Pinnacle Peak Rd", "address2": "Ste B-1", "address3": null, "city": "Scottsdale", "zip_code": "85255", "country": "US", "state": "AZ", "display_address": ["8900 E Pinnacle Peak Rd", "Ste B-1", "Scottsdale, AZ 85255"]}, "phone": "+14802199334", "display_phone": "(480) 219-9334", "distance": 17762.535762088377}, {"id": "nzbQXU2x7O8oucKGthUT3g", "alias": "grimaldis-pizzeria-scottsdale-15", "name": "Grimaldi's Pizzeria", "image_url": "https://s3-media2.fl.yelpcdn.com/bphoto/Pdfj9tATHjRkJXVQEWj2XA/o.jpg", "is_closed": false, "url": "https://www.yelp.com/biz/grimaldis-pizzeria-scottsdale-15?adjust_creative=_XtPN5sB9p2gFalQqwrzYQ&utm_campaign=yelp_api_v3&utm_medium=api_v3_business_search&utm_source=_XtPN5sB9p2gFalQqwrzYQ", "review_count": 354, "categories": [{"alias": "pizza", "title": "Pizza"}, {"alias": "desserts", "title": "Desserts"}, {"alias": "beer_and_wine", "title": "Beer, Wine & Spirits"}], "rating": 3.5, "coordinates": {"latitude": 33.67407684, "longitude": -111.88802181}, "transactions": ["delivery", "pickup"], "price": "$$", "location": {"address1": "20715 North Pima Rd", "address2": "Ste F115", "address3": "", "city": "Scottsdale", "zip_code": "85255", "country": "US", "state": "AZ", "display_address": ["20715 North Pima Rd", "Ste F115", "Scottsdale, AZ 85255"]}, "phone": "+14805155588", "display_phone": "(480) 515-5588", "distance": 20404.861760928627}, {"id": "oT82GLKa-ntmiV00sd6PGA", "alias": "venues-cafe-carefree-3", "name": "Venues Cafe", "image_url": "https://s3-media4.fl.yelpcdn.com/bphoto/kNHaRn0l6l2zt1BDhzqjIQ/o.jpg", "is_closed": false, "url": "https://www.yelp.com/biz/venues-cafe-carefree-3?adjust_creative=_XtPN5sB9p2gFalQqwrzYQ&utm_campaign=yelp_api_v3&utm_medium=api_v3_business_search&utm_source=_XtPN5sB9p2gFalQqwrzYQ", "review_count": 275, "categories": [{"alias": "newamerican", "title": "New American"}, {"alias": "cafes", "title": "Cafes"}], "rating": 3.5, "coordinates": {"latitude": 33.82521, "longitude": -111.92264}, "transactions": ["delivery", "pickup"], "price": "$$", "location": {"address1": "34 Easy St", "address2": "", "address3": "", "city": "Carefree", "zip_code": "85377", "country": "US", "state": "AZ", "display_address": ["34 Easy St", "Carefree, AZ 85377"]}, "phone": "+14805959909", "display_phone": "(480) 595-9909", "distance": 4815.632015754639}, {"id": "HsrJucuS83bt4NTCWNxILw", "alias": "legends-bar-and-grill-phoenix", "name": "Legends Bar & Grill", "image_url": "https://s3-media2.fl.yelpcdn.com/bphoto/L7uUg17_9hzVq-EGGM4__g/o.jpg", "is_closed": false, "url": "https://www.yelp.com/biz/legends-bar-and-grill-phoenix?adjust_creative=_XtPN5sB9p2gFalQqwrzYQ&utm_campaign=yelp_api_v3&utm_medium=api_v3_business_search&utm_source=_XtPN5sB9p2gFalQqwrzYQ", "review_count": 206, "categories": [{"alias": "tradamerican", "title": "American"}, {"alias": "bars", "title": "Bars"}, {"alias": "hotdog", "title": "Hot Dogs"}], "rating": 3.5, "coordinates": {"latitude": 33.863832, "longitude": -112.138417}, "transactions": ["delivery"], "price": "$$", "location": {"address1": "3655 W Anthem Way", "address2": "", "address3": "", "city": "Phoenix", "zip_code": "85086", "country": "US", "state": "AZ", "display_address": ["3655 W Anthem Way", "Phoenix, AZ 85086"]}, "phone": "+16235519525", "display_phone": "(623) 551-9525", "distance": 15767.765198266734}, {"id": "8cVpaT_erfXalFv3-IWWsw", "alias": "bashas-carefree", "name": "Bashas'", "image_url": "https://s3-media2.fl.yelpcdn.com/bphoto/c3cdirkkMqJHv0o-R4aVaw/o.jpg", "is_closed": false, "url": "https://www.yelp.com/biz/bashas-carefree?adjust_creative=_XtPN5sB9p2gFalQqwrzYQ&utm_campaign=yelp_api_v3&utm_medium=api_v3_business_search&utm_source=_XtPN5sB9p2gFalQqwrzYQ", "review_count": 41, "categories": [{"alias": "grocery", "title": "Grocery"}, {"alias": "florists", "title": "Florists"}], "rating": 3.0, "coordinates": {"latitude": 33.82179576937496, "longitude": -111.92279667055222}, "transactions": ["delivery", "pickup"], "price": "$$", "location": {"address1": "36889 N Tom Darlington Dr", "address2": "", "address3": "", "city": "Carefree", "zip_code": "85377", "country": "US", "state": "AZ", "display_address": ["36889 N Tom Darlington Dr", "Carefree, AZ 85377"]}, "phone": "+14804881797", "display_phone": "(480) 488-1797", "distance": 4988.229268598962}, {"id": "kKSRP5M_62fssd0kVJvBcQ", "alias": "food-truck-caravan-and-events-cave-creek", "name": "Food Truck Caravan and Events", "image_url": "https://s3-media1.fl.yelpcdn.com/bphoto/JfcIhm0V8HjNxRPlyVqtfA/o.jpg", "is_closed": false, "url": "https://www.yelp.com/biz/food-truck-caravan-and-events-cave-creek?adjust_creative=_XtPN5sB9p2gFalQqwrzYQ&utm_campaign=yelp_api_v3&utm_medium=api_v3_business_search&utm_source=_XtPN5sB9p2gFalQqwrzYQ", "review_count": 27, "categories": [{"alias": "foodtrucks", "title": "Food Trucks"}, {"alias": "catering", "title": "Caterers"}], "rating": 4.0, "coordinates": {"latitude": 33.8333716, "longitude": -111.9507042}, "transactions": [], "price": "$$", "location": {"address1": "", "address2": "", "address3": "", "city": "cave creek", "zip_code": "85331", "country": "US", "state": "AZ", "display_address": ["cave creek, AZ 85331"]}, "phone": "+14802511769", "display_phone": "(480) 251-1769", "distance": 2125.062963027077}, {"id": "C-Qkudv7u8465nLasGR31A", "alias": "tru-burger-anthem-2", "name": "Tru Burger", "image_url": "https://s3-media1.fl.yelpcdn.com/bphoto/aPS4pu0kXq6hDfU8-dduig/o.jpg", "is_closed": false, "url": "https://www.yelp.com/biz/tru-burger-anthem-2?adjust_creative=_XtPN5sB9p2gFalQqwrzYQ&utm_campaign=yelp_api_v3&utm_medium=api_v3_business_search&utm_source=_XtPN5sB9p2gFalQqwrzYQ", "review_count": 452, "categories": [{"alias": "tradamerican", "title": "American"}], "rating": 4.0, "coordinates": {"latitude": 33.84345680333242, "longitude": -112.134641320867}, "transactions": ["delivery", "pickup"], "price": "$$", "location": {"address1": "39504 N Daisy Mountain Dr", "address2": "", "address3": "", "city": "Anthem", "zip_code": "85086", "country": "US", "state": "AZ", "display_address": ["39504 N Daisy Mountain Dr", "Anthem, AZ 85086"]}, "phone": "+16234655000", "display_phone": "(623) 465-5000", "distance": 15277.601516197015}, {"id": "U99Zvi9LLv67TZ2z6ddsWQ", "alias": "pinnacle-grille-scottsdale", "name": "Pinnacle Grille", "image_url": "https://s3-media2.fl.yelpcdn.com/bphoto/X1I73c0bqMioy-pIfDEjUw/o.jpg", "is_closed": false, "url": "https://www.yelp.com/biz/pinnacle-grille-scottsdale?adjust_creative=_XtPN5sB9p2gFalQqwrzYQ&utm_campaign=yelp_api_v3&utm_medium=api_v3_business_search&utm_source=_XtPN5sB9p2gFalQqwrzYQ", "review_count": 292, "categories": [{"alias": "burgers", "title": "Burgers"}, {"alias": "tradamerican", "title": "American"}, {"alias": "hotdogs", "title": "Fast Food"}], "rating": 3.5, "coordinates": {"latitude": 33.727484, "longitude": -111.853671}, "transactions": ["delivery"], "price": "$$", "location": {"address1": "10428 E Jomax Rd", "address2": "", "address3": "", "city": "Scottsdale", "zip_code": "85262", "country": "US", "state": "AZ", "display_address": ["10428 E Jomax Rd", "Scottsdale, AZ 85262"]}, "phone": "+14805153500", "display_phone": "(480) 515-3500", "distance": 16851.031563135817}, {"id": "8F9C5vhDlYphBWELUgLkvQ", "alias": "famous-rays-pizza-phoenix-5", "name": "Famous Ray's Pizza", "image_url": "https://s3-media2.fl.yelpcdn.com/bphoto/ybmSJaTi46-T55DGWWw-xQ/o.jpg", "is_closed": false, "url": "https://www.yelp.com/biz/famous-rays-pizza-phoenix-5?adjust_creative=_XtPN5sB9p2gFalQqwrzYQ&utm_campaign=yelp_api_v3&utm_medium=api_v3_business_search&utm_source=_XtPN5sB9p2gFalQqwrzYQ", "review_count": 147, "categories": [{"alias": "pizza", "title": "Pizza"}], "rating": 3.0, "coordinates": {"latitude": 33.711278775142, "longitude": -112.11143}, "transactions": ["delivery"], "price": "$", "location": {"address1": "2501 W Happy Valley Rd", "address2": "", "address3": "", "city": "Phoenix", "zip_code": "85085", "country": "US", "state": "AZ", "display_address": ["2501 W Happy Valley Rd", "Phoenix, AZ 85085"]}, "phone": "+16235164640", "display_phone": "(623) 516-4640", "distance": 19821.55529132763}, {"id": "uaACJi5OWb9zlduwt1ucgQ", "alias": "firehouse-subs-anthem", "name": "Firehouse Subs", "image_url": "https://s3-media3.fl.yelpcdn.com/bphoto/iUxn3P-mTMNDbAy6UPhHIg/o.jpg", "is_closed": false, "url": "https://www.yelp.com/biz/firehouse-subs-anthem?adjust_creative=_XtPN5sB9p2gFalQqwrzYQ&utm_campaign=yelp_api_v3&utm_medium=api_v3_business_search&utm_source=_XtPN5sB9p2gFalQqwrzYQ", "review_count": 7, "categories": [{"alias": "hotdogs", "title": "Fast Food"}, {"alias": "delis", "title": "Delis"}, {"alias": "sandwiches", "title": "Sandwiches"}], "rating": 2.0, "coordinates": {"latitude": 33.86967, "longitude": -112.15089}, "transactions": ["delivery", "pickup"], "location": {"address1": "42407 N Vision Way", "address2": "Ste 103", "address3": "Centerpoint Plaza", "city": "Anthem", "zip_code": "84086", "country": "US", "state": "AZ", "display_address": ["42407 N Vision Way", "Ste 103", "Centerpoint Plaza", "Anthem, AZ 84086"]}, "phone": "+16024572513", "display_phone": "(602) 457-2513", "distance": 17002.995591491614}, {"id": "2bviAOkS-Q0fVGfjzjzE8g", "alias": "stumblina-s-cantina-cave-creek", "name": "Stumblina\u2019s Cantina", "image_url": "https://s3-media2.fl.yelpcdn.com/bphoto/xE8ISrfzbRrgv7s9y7Jv2g/o.jpg", "is_closed": false, "url": "https://www.yelp.com/biz/stumblina-s-cantina-cave-creek?adjust_creative=_XtPN5sB9p2gFalQqwrzYQ&utm_campaign=yelp_api_v3&utm_medium=api_v3_business_search&utm_source=_XtPN5sB9p2gFalQqwrzYQ", "review_count": 128, "categories": [{"alias": "tradamerican", "title": "American"}, {"alias": "tacos", "title": "Tacos"}], "rating": 3.5, "coordinates": {"latitude": 33.832424706659, "longitude": -111.945000785821}, "transactions": [], "price": "$$", "location": {"address1": "6268 E Cave Creek Rd", "address2": "Ste 1", "address3": null, "city": "Cave Creek", "zip_code": "85331", "country": "US", "state": "AZ", "display_address": ["6268 E Cave Creek Rd", "Ste 1", "Cave Creek, AZ 85331"]}, "phone": "+14806879077", "display_phone": "(480) 687-9077", "distance": 2621.4514215291592}, {"id": "VGhyoDJRrebP8ZKWx9L8Wg", "alias": "the-tennessee-grill-anthem-5", "name": "The Tennessee Grill", "image_url": "https://s3-media4.fl.yelpcdn.com/bphoto/e_gEbiWIXv6QubPmK2TtuA/o.jpg", "is_closed": false, "url": "https://www.yelp.com/biz/the-tennessee-grill-anthem-5?adjust_creative=_XtPN5sB9p2gFalQqwrzYQ&utm_campaign=yelp_api_v3&utm_medium=api_v3_business_search&utm_source=_XtPN5sB9p2gFalQqwrzYQ", "review_count": 580, "categories": [{"alias": "tradamerican", "title": "American"}, {"alias": "breakfast_brunch", "title": "Breakfast & Brunch"}, {"alias": "pizza", "title": "Pizza"}], "rating": 4.0, "coordinates": {"latitude": 33.870244, "longitude": -112.151102}, "transactions": ["delivery", "pickup"], "price": "$$", "location": {"address1": "4220 W Summit Walk Ct", "address2": "", "address3": "", "city": "Anthem", "zip_code": "85086", "country": "US", "state": "AZ", "display_address": ["4220 W Summit Walk Ct", "Anthem, AZ 85086"]}, "phone": "+16235511500", "display_phone": "(623) 551-1500", "distance": 17029.241074580663}, {"id": "76u0BfurPWxXTEUdkRTefA", "alias": "babbo-italian-eatery-cave-creek", "name": "Babbo Italian Eatery", "image_url": "https://s3-media1.fl.yelpcdn.com/bphoto/vNGb85eTCdmJWfSPZ8rnLA/o.jpg", "is_closed": false, "url": "https://www.yelp.com/biz/babbo-italian-eatery-cave-creek?adjust_creative=_XtPN5sB9p2gFalQqwrzYQ&utm_campaign=yelp_api_v3&utm_medium=api_v3_business_search&utm_source=_XtPN5sB9p2gFalQqwrzYQ", "review_count": 231, "categories": [{"alias": "italian", "title": "Italian"}, {"alias": "pizza", "title": "Pizza"}], "rating": 3.5, "coordinates": {"latitude": 33.7530800891393, "longitude": -111.990327313542}, "transactions": ["delivery", "pickup"], "price": "$$", "location": {"address1": "29455 N Cave Creek Rd", "address2": "", "address3": "", "city": "Cave Creek", "zip_code": "85331", "country": "US", "state": "AZ", "display_address": ["29455 N Cave Creek Rd", "Cave Creek, AZ 85331"]}, "phone": "+14804196363", "display_phone": "(480) 419-6363", "distance": 10374.080440112411}, {"id": "wV6Nle04jS8I40tUHPUiiQ", "alias": "humble-pie-glendale", "name": "Humble Pie", "image_url": "https://s3-media1.fl.yelpcdn.com/bphoto/4nBu7sOWDltFzQ5ROtb-ow/o.jpg", "is_closed": false, "url": "https://www.yelp.com/biz/humble-pie-glendale?adjust_creative=_XtPN5sB9p2gFalQqwrzYQ&utm_campaign=yelp_api_v3&utm_medium=api_v3_business_search&utm_source=_XtPN5sB9p2gFalQqwrzYQ", "review_count": 243, "categories": [{"alias": "pizza", "title": "Pizza"}, {"alias": "italian", "title": "Italian"}], "rating": 3.5, "coordinates": {"latitude": 33.7138507098607, "longitude": -112.143345755704}, "transactions": ["delivery"], "price": "$$", "location": {"address1": "3890 W Happy Valley Rd", "address2": "", "address3": "", "city": "Glendale", "zip_code": "85310", "country": "US", "state": "AZ", "display_address": ["3890 W Happy Valley Rd", "Glendale, AZ 85310"]}, "phone": "+16235804300", "display_phone": "(623) 580-4300", "distance": 21696.182369831942}, {"id": "qDbVUkKMLtRqSDcKgLTx1A", "alias": "slices-phoenix-2", "name": "Slices", "image_url": "https://s3-media2.fl.yelpcdn.com/bphoto/5Ioz-5f_3btKH7miCp06VA/o.jpg", "is_closed": false, "url": "https://www.yelp.com/biz/slices-phoenix-2?adjust_creative=_XtPN5sB9p2gFalQqwrzYQ&utm_campaign=yelp_api_v3&utm_medium=api_v3_business_search&utm_source=_XtPN5sB9p2gFalQqwrzYQ", "review_count": 169, "categories": [{"alias": "pizza", "title": "Pizza"}, {"alias": "italian", "title": "Italian"}, {"alias": "hotdogs", "title": "Fast Food"}], "rating": 3.5, "coordinates": {"latitude": 33.676109, "longitude": -111.971953}, "transactions": ["delivery", "pickup"], "price": "$", "location": {"address1": "21001 N Tatum Blvd", "address2": "", "address3": "", "city": "Phoenix", "zip_code": "85050", "country": "US", "state": "AZ", "display_address": ["21001 N Tatum Blvd", "Phoenix, AZ 85050"]}, "phone": "+14805131861", "display_phone": "(480) 513-1861", "distance": 18749.63038748205}, {"id": "0jDvRJS-z9zdMgOUXgr6rA", "alias": "sunfare-phoenix", "name": "Sunfare", "image_url": "https://s3-media2.fl.yelpcdn.com/bphoto/qNZI-B2hRV8hSthPFfVo_w/o.jpg", "is_closed": false, "url": "https://www.yelp.com/biz/sunfare-phoenix?adjust_creative=_XtPN5sB9p2gFalQqwrzYQ&utm_campaign=yelp_api_v3&utm_medium=api_v3_business_search&utm_source=_XtPN5sB9p2gFalQqwrzYQ", "review_count": 32, "categories": [{"alias": "fooddeliveryservices", "title": "Food Delivery Services"}, {"alias": "weightlosscenters", "title": "Weight Loss Centers"}, {"alias": "healthmarkets", "title": "Health Markets"}], "rating": 5.0, "coordinates": {"latitude": 33.68334, "longitude": -112.08462}, "transactions": [], "price": "$$", "location": {"address1": "811 W Deer Valley Rd", "address2": "", "address3": "", "city": "Phoenix", "zip_code": "85027", "country": "US", "state": "AZ", "display_address": ["811 W Deer Valley Rd", "Phoenix, AZ 85027"]}, "phone": "+16235820588", "display_phone": "(623) 582-0588", "distance": 20872.18405820286}, {"id": "vU10-hRFCJ_J-ie0Im_ndA", "alias": "vic-and-olas-scottsdale-2", "name": "Vic & Ola's", "image_url": "https://s3-media1.fl.yelpcdn.com/bphoto/U68Kg8p1upYZImG7XJdGuQ/o.jpg", "is_closed": false, "url": "https://www.yelp.com/biz/vic-and-olas-scottsdale-2?adjust_creative=_XtPN5sB9p2gFalQqwrzYQ&utm_campaign=yelp_api_v3&utm_medium=api_v3_business_search&utm_source=_XtPN5sB9p2gFalQqwrzYQ", "review_count": 426, "categories": [{"alias": "italian", "title": "Italian"}], "rating": 4.5, "coordinates": {"latitude": 33.67439, "longitude": -111.88906167}, "transactions": ["delivery"], "price": "$$$", "location": {"address1": "20775 N Pima Rd", "address2": "Ste 110", "address3": null, "city": "Scottsdale", "zip_code": "85255", "country": "US", "state": "AZ", "display_address": ["20775 N Pima Rd", "Ste 110", "Scottsdale, AZ 85255"]}, "phone": "+14805132048", "display_phone": "(480) 513-2048", "distance": 20312.18328702902}, {"id": "d1zVNv9jW86J0csrknpqcw", "alias": "parma-italian-roots-scottsdale", "name": "Parma Italian Roots", "image_url": "https://s3-media2.fl.yelpcdn.com/bphoto/F1auVOMsYwkPUe2T8nhIJw/o.jpg", "is_closed": false, "url": "https://www.yelp.com/biz/parma-italian-roots-scottsdale?adjust_creative=_XtPN5sB9p2gFalQqwrzYQ&utm_campaign=yelp_api_v3&utm_medium=api_v3_business_search&utm_source=_XtPN5sB9p2gFalQqwrzYQ", "review_count": 323, "categories": [{"alias": "italian", "title": "Italian"}, {"alias": "cocktailbars", "title": "Cocktail Bars"}], "rating": 4.0, "coordinates": {"latitude": 33.6762908, "longitude": -111.9231242}, "transactions": ["delivery", "pickup"], "price": "$$", "location": {"address1": "20831 N Scottsdale Rd", "address2": "Ste 117", "address3": "", "city": "Scottsdale", "zip_code": "85255", "country": "US", "state": "AZ", "display_address": ["20831 N Scottsdale Rd", "Ste 117", "Scottsdale, AZ 85255"]}, "phone": "+14802929900", "display_phone": "(480) 292-9900", "distance": 19206.46093016695}, {"id": "8J55FMsOXei4Xh1jHSpElw", "alias": "sauce-pizza-and-wine-phoenix-3", "name": "Sauce Pizza & Wine", "image_url": "https://s3-media3.fl.yelpcdn.com/bphoto/urOPGcJTSj1Eo0ijB-pIVw/o.jpg", "is_closed": false, "url": "https://www.yelp.com/biz/sauce-pizza-and-wine-phoenix-3?adjust_creative=_XtPN5sB9p2gFalQqwrzYQ&utm_campaign=yelp_api_v3&utm_medium=api_v3_business_search&utm_source=_XtPN5sB9p2gFalQqwrzYQ", "review_count": 329, "categories": [{"alias": "italian", "title": "Italian"}, {"alias": "pizza", "title": "Pizza"}, {"alias": "wine_bars", "title": "Wine Bars"}], "rating": 3.5, "coordinates": {"latitude": 33.7130949, "longitude": -112.111459}, "transactions": ["delivery", "pickup"], "price": "$$", "location": {"address1": "2470 W Happy Valley Rd", "address2": "", "address3": "", "city": "Phoenix", "zip_code": "85085", "country": "US", "state": "AZ", "display_address": ["2470 W Happy Valley Rd", "Phoenix, AZ 85085"]}, "phone": "+16234144866", "display_phone": "(623) 414-4866", "distance": 19628.882801400214}, {"id": "_VbFQBRa1qus4u9uaTCAHA", "alias": "papa-murphys-cave-creek-2", "name": "Papa Murphy's", "image_url": "https://s3-media4.fl.yelpcdn.com/bphoto/U4FEZumSdhPt0Lm7oO5Ekw/o.jpg", "is_closed": false, "url": "https://www.yelp.com/biz/papa-murphys-cave-creek-2?adjust_creative=_XtPN5sB9p2gFalQqwrzYQ&utm_campaign=yelp_api_v3&utm_medium=api_v3_business_search&utm_source=_XtPN5sB9p2gFalQqwrzYQ", "review_count": 31, "categories": [{"alias": "pizza", "title": "Pizza"}], "rating": 3.5, "coordinates": {"latitude": 33.7530864531424, "longitude": -111.98995095889548}, "transactions": ["delivery"], "price": "$", "location": {"address1": "29455 N Cave Creek Rd", "address2": "Ste 142", "address3": "", "city": "Cave Creek", "zip_code": "85331", "country": "US", "state": "AZ", "display_address": ["29455 N Cave Creek Rd", "Ste 142", "Cave Creek, AZ 85331"]}, "phone": "+14805024433", "display_phone": "(480) 502-4433", "distance": 10366.904141766581}, {"id": "1fhYyEILdhKz_WVfjnijVw", "alias": "dominos-pizza-glendale", "name": "Domino's Pizza", "image_url": "https://s3-media2.fl.yelpcdn.com/bphoto/-8cDRptR8pyYQJ1kEiS_4Q/o.jpg", "is_closed": false, "url": "https://www.yelp.com/biz/dominos-pizza-glendale?adjust_creative=_XtPN5sB9p2gFalQqwrzYQ&utm_campaign=yelp_api_v3&utm_medium=api_v3_business_search&utm_source=_XtPN5sB9p2gFalQqwrzYQ", "review_count": 62, "categories": [{"alias": "pizza", "title": "Pizza"}, {"alias": "chicken_wings", "title": "Chicken Wings"}, {"alias": "sandwiches", "title": "Sandwiches"}], "rating": 2.0, "coordinates": {"latitude": 33.69874, "longitude": -112.14089}, "transactions": [], "price": "$", "location": {"address1": "3632 W Pinnacle Peak Rd", "address2": "Ste C", "address3": "", "city": "Glendale", "zip_code": "85310", "country": "US", "state": "AZ", "display_address": ["3632 W Pinnacle Peak Rd", "Ste C", "Glendale, AZ 85310"]}, "phone": "+16235823332", "display_phone": "(623) 582-3332", "distance": 22693.89357246694}, {"id": "vrP4jcLcZ-qhYHaFj7YTKQ", "alias": "tortas-chano-anthem", "name": "Tortas Chano", "image_url": "https://s3-media3.fl.yelpcdn.com/bphoto/XFi3gKbjJhgIhmTo4b3ykw/o.jpg", "is_closed": false, "url": "https://www.yelp.com/biz/tortas-chano-anthem?adjust_creative=_XtPN5sB9p2gFalQqwrzYQ&utm_campaign=yelp_api_v3&utm_medium=api_v3_business_search&utm_source=_XtPN5sB9p2gFalQqwrzYQ", "review_count": 502, "categories": [{"alias": "mexican", "title": "Mexican"}], "rating": 4.0, "coordinates": {"latitude": 33.844328, "longitude": -112.133957}, "transactions": ["delivery", "pickup"], "price": "$", "location": {"address1": "39510 N Daisy Mountain Rd", "address2": "", "address3": "", "city": "Anthem", "zip_code": "85086", "country": "US", "state": "AZ", "display_address": ["39510 N Daisy Mountain Rd", "Anthem, AZ 85086"]}, "phone": "+16234651515", "display_phone": "(623) 465-1515", "distance": 15213.745916158698}, {"id": "dSnQTUJC0tCHadU1AGzvrw", "alias": "isabellas-kitchen-scottsdale", "name": "Isabella's Kitchen", "image_url": "https://s3-media4.fl.yelpcdn.com/bphoto/fkMitsAVMbabxy0x05LJMw/o.jpg", "is_closed": false, "url": "https://www.yelp.com/biz/isabellas-kitchen-scottsdale?adjust_creative=_XtPN5sB9p2gFalQqwrzYQ&utm_campaign=yelp_api_v3&utm_medium=api_v3_business_search&utm_source=_XtPN5sB9p2gFalQqwrzYQ", "review_count": 490, "categories": [{"alias": "italian", "title": "Italian"}], "rating": 3.5, "coordinates": {"latitude": 33.675948830561246, "longitude": -111.89652265488743}, "transactions": ["delivery"], "price": "$$", "location": {"address1": "8623 E Thompson Peak Pkwy", "address2": "", "address3": "", "city": "Scottsdale", "zip_code": "85255", "country": "US", "state": "AZ", "display_address": ["8623 E Thompson Peak Pkwy", "Scottsdale, AZ 85255"]}, "phone": "+14805023100", "display_phone": "(480) 502-3100", "distance": 19932.910739321116}, {"id": "gc78dwGe4EP6resjJHJEbA", "alias": "nicks-scottsdale-3", "name": "Nick's", "image_url": "https://s3-media3.fl.yelpcdn.com/bphoto/ejxKio7gTU8ZZRGWiv2YVQ/o.jpg", "is_closed": false, "url": "https://www.yelp.com/biz/nicks-scottsdale-3?adjust_creative=_XtPN5sB9p2gFalQqwrzYQ&utm_campaign=yelp_api_v3&utm_medium=api_v3_business_search&utm_source=_XtPN5sB9p2gFalQqwrzYQ", "review_count": 154, "categories": [{"alias": "italian", "title": "Italian"}], "rating": 3.5, "coordinates": {"latitude": 33.698873, "longitude": -111.8903551}, "transactions": ["delivery"], "price": "$$", "location": {"address1": "23417 N Pima Rd", "address2": "", "address3": "", "city": "Scottsdale", "zip_code": "85255", "country": "US", "state": "AZ", "display_address": ["23417 N Pima Rd", "Scottsdale, AZ 85255"]}, "phone": "+14805150096", "display_phone": "(480) 515-0096", "distance": 17900.908453372434}, {"id": "kxzS-zh5nUNvBzYz2Q47pg", "alias": "spotted-donkey-cantina-el-pedregal-scottsdale-2", "name": "Spotted Donkey Cantina", "image_url": "https://s3-media1.fl.yelpcdn.com/bphoto/m286ghZogq1xbjQqEDYVEw/o.jpg", "is_closed": false, "url": "https://www.yelp.com/biz/spotted-donkey-cantina-el-pedregal-scottsdale-2?adjust_creative=_XtPN5sB9p2gFalQqwrzYQ&utm_campaign=yelp_api_v3&utm_medium=api_v3_business_search&utm_source=_XtPN5sB9p2gFalQqwrzYQ", "review_count": 585, "categories": [{"alias": "mexican", "title": "Mexican"}], "rating": 3.5, "coordinates": {"latitude": 33.798073, "longitude": -111.926458}, "transactions": ["delivery"], "price": "$$", "location": {"address1": "34505 N Scottsdale Rd", "address2": "", "address3": "", "city": "Scottsdale", "zip_code": "85266", "country": "US", "state": "AZ", "display_address": ["34505 N Scottsdale Rd", "Scottsdale, AZ 85266"]}, "phone": "+14804883358", "display_phone": "(480) 488-3358", "distance": 6519.446787211414}, {"id": "caHv7LRXKNTYLK_Ay7RB2w", "alias": "ajs-purveyor-of-fine-foods-scottsdale-5", "name": "AJ'S Purveyor of Fine Foods", "image_url": "https://s3-media4.fl.yelpcdn.com/bphoto/LUmSUhKg0ZQtSmEKzJhsgQ/o.jpg", "is_closed": false, "url": "https://www.yelp.com/biz/ajs-purveyor-of-fine-foods-scottsdale-5?adjust_creative=_XtPN5sB9p2gFalQqwrzYQ&utm_campaign=yelp_api_v3&utm_medium=api_v3_business_search&utm_source=_XtPN5sB9p2gFalQqwrzYQ", "review_count": 77, "categories": [{"alias": "grocery", "title": "Grocery"}, {"alias": "beer_and_wine", "title": "Beer, Wine & Spirits"}], "rating": 3.5, "coordinates": {"latitude": 33.76843753, "longitude": -111.92389163}, "transactions": ["delivery", "pickup"], "price": "$$$", "location": {"address1": "31311 N Scottsdale Rd", "address2": "", "address3": "", "city": "Scottsdale", "zip_code": "85266", "country": "US", "state": "AZ", "display_address": ["31311 N Scottsdale Rd", "Scottsdale, AZ 85266"]}, "phone": "+14805756200", "display_phone": "(480) 575-6200", "distance": 9459.268865490356}, {"id": "XTqovJIERskUcTnUNxhp_Q", "alias": "the-pony-express-cafe-scottsdale-2", "name": "The Pony Express Cafe", "image_url": "https://s3-media4.fl.yelpcdn.com/bphoto/LH9Rz-BkXqxYoFZYoE-2Nw/o.jpg", "is_closed": false, "url": "https://www.yelp.com/biz/the-pony-express-cafe-scottsdale-2?adjust_creative=_XtPN5sB9p2gFalQqwrzYQ&utm_campaign=yelp_api_v3&utm_medium=api_v3_business_search&utm_source=_XtPN5sB9p2gFalQqwrzYQ", "review_count": 112, "categories": [{"alias": "breakfast_brunch", "title": "Breakfast & Brunch"}, {"alias": "wine_bars", "title": "Wine Bars"}, {"alias": "whiskeybars", "title": "Whiskey Bars"}], "rating": 4.5, "coordinates": {"latitude": 33.741343, "longitude": -111.84357}, "transactions": ["delivery"], "price": "$", "location": {"address1": "28190 N Alma School Pkwy", "address2": "", "address3": "", "city": "Scottsdale", "zip_code": "85262", "country": "US", "state": "AZ", "display_address": ["28190 N Alma School Pkwy", "Scottsdale, AZ 85262"]}, "phone": "+14805029861", "display_phone": "(480) 502-9861", "distance": 16338.390061496622}, {"id": "iuSq6jpt-r-7JxqXE5hK6g", "alias": "heart-and-soul-cafe-and-saloon-cave-creek-2", "name": "Heart And Soul Cafe And Saloon", "image_url": "https://s3-media2.fl.yelpcdn.com/bphoto/5c5QWN35regDkSDnFKl3fA/o.jpg", "is_closed": false, "url": "https://www.yelp.com/biz/heart-and-soul-cafe-and-saloon-cave-creek-2?adjust_creative=_XtPN5sB9p2gFalQqwrzYQ&utm_campaign=yelp_api_v3&utm_medium=api_v3_business_search&utm_source=_XtPN5sB9p2gFalQqwrzYQ", "review_count": 444, "categories": [{"alias": "breakfast_brunch", "title": "Breakfast & Brunch"}, {"alias": "musicvenues", "title": "Music Venues"}, {"alias": "comfortfood", "title": "Comfort Food"}], "rating": 3.5, "coordinates": {"latitude": 33.7979664, "longitude": -111.9803348}, "transactions": ["delivery"], "price": "$$", "location": {"address1": "4705 E Carefree Hwy", "address2": "Ste 117", "address3": "", "city": "Cave Creek", "zip_code": "85331", "country": "US", "state": "AZ", "display_address": ["4705 E Carefree Hwy", "Ste 117", "Cave Creek, AZ 85331"]}, "phone": "+14805957300", "display_phone": "(480) 595-7300", "distance": 5298.406038130166}, {"id": "zH1PFebNnfrRtS5_9LnXlA", "alias": "loco-j-s-cave-creek", "name": "Loco J's", "image_url": "https://s3-media2.fl.yelpcdn.com/bphoto/1zHok6Og2Fr8FmQYW4i-RQ/o.jpg", "is_closed": false, "url": "https://www.yelp.com/biz/loco-j-s-cave-creek?adjust_creative=_XtPN5sB9p2gFalQqwrzYQ&utm_campaign=yelp_api_v3&utm_medium=api_v3_business_search&utm_source=_XtPN5sB9p2gFalQqwrzYQ", "review_count": 103, "categories": [{"alias": "mexican", "title": "Mexican"}, {"alias": "wine_bars", "title": "Wine Bars"}, {"alias": "cocktailbars", "title": "Cocktail Bars"}], "rating": 4.0, "coordinates": {"latitude": 33.7428953594863, "longitude": -111.97858042576834}, "transactions": ["delivery", "pickup"], "price": "$$", "location": {"address1": "28260 N Tatum Blvd", "address2": "Ste  A7", "address3": null, "city": "Cave Creek", "zip_code": "85331", "country": "US", "state": "AZ", "display_address": ["28260 N Tatum Blvd", "Ste  A7", "Cave Creek, AZ 85331"]}, "phone": "+14804744820", "display_phone": "(480) 474-4820", "distance": 11354.608646393111}, {"id": "a6nZdebWiAZ97jync-vnGA", "alias": "the-living-room-scottsdale-3", "name": "The Living Room Wine Cafe & Lounge", "image_url": "https://s3-media4.fl.yelpcdn.com/bphoto/z5SNJAGcH3a9XhBgy40kWA/o.jpg", "is_closed": false, "url": "https://www.yelp.com/biz/the-living-room-scottsdale-3?adjust_creative=_XtPN5sB9p2gFalQqwrzYQ&utm_campaign=yelp_api_v3&utm_medium=api_v3_business_search&utm_source=_XtPN5sB9p2gFalQqwrzYQ", "review_count": 412, "categories": [{"alias": "newamerican", "title": "New American"}, {"alias": "wine_bars", "title": "Wine Bars"}, {"alias": "cafes", "title": "Cafes"}], "rating": 4.0, "coordinates": {"latitude": 33.6747790973845, "longitude": -111.8880075312828}, "transactions": ["delivery", "pickup"], "price": "$$", "location": {"address1": "20751 N Pima Rd", "address2": "Ste 120", "address3": "", "city": "Scottsdale", "zip_code": "85255", "country": "US", "state": "AZ", "display_address": ["20751 N Pima Rd", "Ste 120", "Scottsdale, AZ 85255"]}, "phone": "+14804047465", "display_phone": "(480) 404-7465", "distance": 20332.746880617262}, {"id": "phGG2K2oauzvsPVnnKw7pw", "alias": "copper-mule-kitchen-and-bar-scottsdale-2", "name": "Copper Mule Kitchen & Bar", "image_url": "https://s3-media4.fl.yelpcdn.com/bphoto/XM5vVQX5_Fug5I8pEkaWfw/o.jpg", "is_closed": false, "url": "https://www.yelp.com/biz/copper-mule-kitchen-and-bar-scottsdale-2?adjust_creative=_XtPN5sB9p2gFalQqwrzYQ&utm_campaign=yelp_api_v3&utm_medium=api_v3_business_search&utm_source=_XtPN5sB9p2gFalQqwrzYQ", "review_count": 201, "categories": [{"alias": "newamerican", "title": "New American"}], "rating": 4.5, "coordinates": {"latitude": 33.698025, "longitude": -111.9247221}, "transactions": ["delivery", "pickup"], "price": "$$", "location": {"address1": "23335 N Scottsdale Rd", "address2": "Ste D105", "address3": "", "city": "Scottsdale", "zip_code": "85255", "country": "US", "state": "AZ", "display_address": ["23335 N Scottsdale Rd", "Ste D105", "Scottsdale, AZ 85255"]}, "phone": "+14805736853", "display_phone": "(480) 573-6853", "distance": 16821.64062123354}, {"id": "BJW6rCMoWcn8fDFhbMVyEQ", "alias": "jade-palace-scottsdale-6", "name": "Jade Palace", "image_url": "https://s3-media3.fl.yelpcdn.com/bphoto/nQ07fivhKSfQT-U6XoxwiQ/o.jpg", "is_closed": false, "url": "https://www.yelp.com/biz/jade-palace-scottsdale-6?adjust_creative=_XtPN5sB9p2gFalQqwrzYQ&utm_campaign=yelp_api_v3&utm_medium=api_v3_business_search&utm_source=_XtPN5sB9p2gFalQqwrzYQ", "review_count": 386, "categories": [{"alias": "chinese", "title": "Chinese"}, {"alias": "seafood", "title": "Seafood"}, {"alias": "bars", "title": "Bars"}], "rating": 4.0, "coordinates": {"latitude": 33.70063993843205, "longitude": -111.88913633169264}, "transactions": ["delivery"], "price": "$$", "location": {"address1": "8876 E Pinnacle Peak Rd", "address2": "Ste 104", "address3": "", "city": "Scottsdale", "zip_code": "85255", "country": "US", "state": "AZ", "display_address": ["8876 E Pinnacle Peak Rd", "Ste 104", "Scottsdale, AZ 85255"]}, "phone": "+14805856630", "display_phone": "(480) 585-6630", "distance": 17647.771075504625}, {"id": "l9MjPAa0NOWwtKOQJPaWfA", "alias": "thirsty-lion-gastropub-phoenix-2", "name": "Thirsty Lion Gastropub", "image_url": "https://s3-media2.fl.yelpcdn.com/bphoto/ZtfluGsUXKYpEV7KTE_r7A/o.jpg", "is_closed": false, "url": "https://www.yelp.com/biz/thirsty-lion-gastropub-phoenix-2?adjust_creative=_XtPN5sB9p2gFalQqwrzYQ&utm_campaign=yelp_api_v3&utm_medium=api_v3_business_search&utm_source=_XtPN5sB9p2gFalQqwrzYQ", "review_count": 756, "categories": [{"alias": "tradamerican", "title": "American"}, {"alias": "gastropubs", "title": "Gastropubs"}], "rating": 4.5, "coordinates": {"latitude": 33.67627513990527, "longitude": -111.97502577425205}, "transactions": ["delivery", "pickup"], "price": "$$", "location": {"address1": "21001 N Tatum Blvd", "address2": "Ste 6", "address3": null, "city": "Phoenix", "zip_code": "85050", "country": "US", "state": "AZ", "display_address": ["21001 N Tatum Blvd", "Ste 6", "Phoenix, AZ 85050"]}, "phone": "+14804195070", "display_phone": "(480) 419-5070", "distance": 18737.13827798751}, {"id": "AbwzmG9dzgHAsEAVL6mWtA", "alias": "little-caesars-pizza-glendale-4", "name": "Little Caesars Pizza", "image_url": "https://s3-media1.fl.yelpcdn.com/bphoto/2hgBV7DrmpBCkjVch_AcCA/o.jpg", "is_closed": false, "url": "https://www.yelp.com/biz/little-caesars-pizza-glendale-4?adjust_creative=_XtPN5sB9p2gFalQqwrzYQ&utm_campaign=yelp_api_v3&utm_medium=api_v3_business_search&utm_source=_XtPN5sB9p2gFalQqwrzYQ", "review_count": 20, "categories": [{"alias": "pizza", "title": "Pizza"}], "rating": 2.5, "coordinates": {"latitude": 33.7129898, "longitude": -112.1385117}, "transactions": ["delivery"], "price": "$", "location": {"address1": "3730 W Happy Valley Rd", "address2": "Ste 105", "address3": "", "city": "Glendale", "zip_code": "85310", "country": "US", "state": "AZ", "display_address": ["3730 W Happy Valley Rd", "Ste 105", "Glendale, AZ 85310"]}, "phone": "+16235821822", "display_phone": "(623) 582-1822", "distance": 21494.079681279978}, {"id": "h7a_ghSj1bIz4aaTqWwMig", "alias": "sams-barber-shop-cave-creek", "name": "Sam's Barber Shop", "image_url": "https://s3-media3.fl.yelpcdn.com/bphoto/UcZ_S6YP9aPyIU08LIz7sg/o.jpg", "is_closed": false, "url": "https://www.yelp.com/biz/sams-barber-shop-cave-creek?adjust_creative=_XtPN5sB9p2gFalQqwrzYQ&utm_campaign=yelp_api_v3&utm_medium=api_v3_business_search&utm_source=_XtPN5sB9p2gFalQqwrzYQ", "review_count": 30, "categories": [{"alias": "barbers", "title": "Barbers"}], "rating": 4.5, "coordinates": {"latitude": 33.830307, "longitude": -111.928392}, "transactions": [], "price": "$", "location": {"address1": "7100 E Cave Creek Rd", "address2": "Ste 134", "address3": "", "city": "Cave Creek", "zip_code": "85331", "country": "US", "state": "AZ", "display_address": ["7100 E Cave Creek Rd", "Ste 134", "Cave Creek, AZ 85331"]}, "phone": "+14804883929", "display_phone": "(480) 488-3929", "distance": 4097.307225068349}, {"id": "ZSq2GjiFYxdlH3bv_ncxog", "alias": "taco-bell-anthem", "name": "Taco Bell", "image_url": "https://s3-media1.fl.yelpcdn.com/bphoto/07CYMSOgG5vtl2VztPnYvQ/o.jpg", "is_closed": false, "url": "https://www.yelp.com/biz/taco-bell-anthem?adjust_creative=_XtPN5sB9p2gFalQqwrzYQ&utm_campaign=yelp_api_v3&utm_medium=api_v3_business_search&utm_source=_XtPN5sB9p2gFalQqwrzYQ", "review_count": 42, "categories": [{"alias": "hotdogs", "title": "Fast Food"}, {"alias": "mexican", "title": "Mexican"}], "rating": 2.0, "coordinates": {"latitude": 33.8660923400885, "longitude": -112.138105672947}, "transactions": ["delivery"], "price": "$", "location": {"address1": "3659 W. Anthem Way", "address2": "", "address3": "", "city": "Anthem", "zip_code": "85086", "country": "US", "state": "AZ", "display_address": ["3659 W. Anthem Way", "Anthem, AZ 85086"]}, "phone": "+16234659573", "display_phone": "(623) 465-9573", "distance": 15774.989232482147}, {"id": "2S3WsczyCAUp9KCcVmJfRA", "alias": "bambinos-sports-grill-glendale", "name": "Bambino's Sports Grill", "image_url": "https://s3-media3.fl.yelpcdn.com/bphoto/xY8YcNIMe38Yka3He-Cytg/o.jpg", "is_closed": false, "url": "https://www.yelp.com/biz/bambinos-sports-grill-glendale?adjust_creative=_XtPN5sB9p2gFalQqwrzYQ&utm_campaign=yelp_api_v3&utm_medium=api_v3_business_search&utm_source=_XtPN5sB9p2gFalQqwrzYQ", "review_count": 181, "categories": [{"alias": "tradamerican", "title": "American"}, {"alias": "burgers", "title": "Burgers"}, {"alias": "sportsbars", "title": "Sports Bars"}], "rating": 3.0, "coordinates": {"latitude": 33.7133617452241, "longitude": -112.142356961913}, "transactions": ["delivery"], "price": "$$", "location": {"address1": "3860 W Happy Valley Rd", "address2": "", "address3": "", "city": "Glendale", "zip_code": "85310", "country": "US", "state": "AZ", "display_address": ["3860 W Happy Valley Rd", "Glendale, AZ 85310"]}, "phone": "+16235162300", "display_phone": "(623) 516-2300", "distance": 21665.133272066774}, {"id": "ZUj3zcIpypTTToGpIGEkBw", "alias": "simple-machine-brewing-company-phoenix-2", "name": "Simple Machine Brewing Company", "image_url": "https://s3-media4.fl.yelpcdn.com/bphoto/GE0hXBN_Eg48LR6CKtMoNw/o.jpg", "is_closed": false, "url": "https://www.yelp.com/biz/simple-machine-brewing-company-phoenix-2?adjust_creative=_XtPN5sB9p2gFalQqwrzYQ&utm_campaign=yelp_api_v3&utm_medium=api_v3_business_search&utm_source=_XtPN5sB9p2gFalQqwrzYQ", "review_count": 67, "categories": [{"alias": "breweries", "title": "Breweries"}], "rating": 4.5, "coordinates": {"latitude": 33.6832082647593, "longitude": -112.08333500370466}, "transactions": [], "price": "$$", "location": {"address1": "701 W Deer Valley Rd", "address2": "Ste 1", "address3": null, "city": "Phoenix", "zip_code": "85027", "country": "US", "state": "AZ", "display_address": ["701 W Deer Valley Rd", "Ste 1", "Phoenix, AZ 85027"]}, "phone": "+16234699199", "display_phone": "(623) 469-9199", "distance": 20827.38192611657}, {"id": "w6frk94BwGwxenre_zeXUg", "alias": "caps-sports-grill-phoenix", "name": "CAPS Sports Grill", "image_url": "https://s3-media1.fl.yelpcdn.com/bphoto/4WwmHUrH4Avh7nyS0fBRYA/o.jpg", "is_closed": false, "url": "https://www.yelp.com/biz/caps-sports-grill-phoenix?adjust_creative=_XtPN5sB9p2gFalQqwrzYQ&utm_campaign=yelp_api_v3&utm_medium=api_v3_business_search&utm_source=_XtPN5sB9p2gFalQqwrzYQ", "review_count": 285, "categories": [{"alias": "tradamerican", "title": "American"}, {"alias": "chicken_wings", "title": "Chicken Wings"}, {"alias": "sportsbars", "title": "Sports Bars"}], "rating": 4.0, "coordinates": {"latitude": 33.675977, "longitude": -112.096882}, "transactions": ["delivery"], "price": "$$", "location": {"address1": "1721 W Rose Garden Ln", "address2": "", "address3": "", "city": "Phoenix", "zip_code": "85027", "country": "US", "state": "AZ", "display_address": ["1721 W Rose Garden Ln", "Phoenix, AZ 85027"]}, "phone": "+16234341950", "display_phone": "(623) 434-1950", "distance": 22165.422003358723}, {"id": "_9lIif6H8CHVcLxjxcSuYQ", "alias": "phat-turtle-bbq-phoenix", "name": "Phat Turtle BBQ", "image_url": "https://s3-media2.fl.yelpcdn.com/bphoto/kCq_Wb0yi0CNS_BPP_y7_w/o.jpg", "is_closed": false, "url": "https://www.yelp.com/biz/phat-turtle-bbq-phoenix?adjust_creative=_XtPN5sB9p2gFalQqwrzYQ&utm_campaign=yelp_api_v3&utm_medium=api_v3_business_search&utm_source=_XtPN5sB9p2gFalQqwrzYQ", "review_count": 296, "categories": [{"alias": "bbq", "title": "Barbeque"}], "rating": 4.0, "coordinates": {"latitude": 33.7661746566979, "longitude": -111.9827624}, "transactions": ["delivery"], "price": "$$", "location": {"address1": "30845 N Cave Creek Rd", "address2": "Ste 107", "address3": null, "city": "Phoenix", "zip_code": "85331", "country": "US", "state": "AZ", "display_address": ["30845 N Cave Creek Rd", "Ste 107", "Phoenix, AZ 85331"]}, "phone": "+16025273257", "display_phone": "(602) 527-3257", "distance": 8822.241940186017}, {"id": "iXTl2p0w4Fnv8wZNeOEbhw", "alias": "chilis-phoenix-23", "name": "Chili's", "image_url": "https://s3-media4.fl.yelpcdn.com/bphoto/ucio__USmu1OzNPH1p9fTA/o.jpg", "is_closed": false, "url": "https://www.yelp.com/biz/chilis-phoenix-23?adjust_creative=_XtPN5sB9p2gFalQqwrzYQ&utm_campaign=yelp_api_v3&utm_medium=api_v3_business_search&utm_source=_XtPN5sB9p2gFalQqwrzYQ", "review_count": 133, "categories": [{"alias": "tradamerican", "title": "American"}, {"alias": "bars", "title": "Bars"}, {"alias": "tex-mex", "title": "Tex-Mex"}], "rating": 3.0, "coordinates": {"latitude": 33.799930996619445, "longitude": -112.1300274}, "transactions": ["pickup", "delivery"], "price": "$$", "location": {"address1": "34710 N North Valley Pkwy", "address2": null, "address3": null, "city": "Phoenix", "zip_code": "85086", "country": "US", "state": "AZ", "display_address": ["34710 N North Valley Pkwy", "Phoenix, AZ 85086"]}, "phone": "+16235804100", "display_phone": "(623) 580-4100", "distance": 15667.04130273824}, {"id": "FQhe0AuYA-XuJUCuOiWhUQ", "alias": "all-american-modern-sports-grill-scottsdale", "name": "All American Modern Sports Grill", "image_url": "https://s3-media4.fl.yelpcdn.com/bphoto/gt_Asr23e2kyXDJYEcj8lQ/o.jpg", "is_closed": false, "url": "https://www.yelp.com/biz/all-american-modern-sports-grill-scottsdale?adjust_creative=_XtPN5sB9p2gFalQqwrzYQ&utm_campaign=yelp_api_v3&utm_medium=api_v3_business_search&utm_source=_XtPN5sB9p2gFalQqwrzYQ", "review_count": 274, "categories": [{"alias": "sportsbars", "title": "Sports Bars"}, {"alias": "tradamerican", "title": "American"}, {"alias": "cocktailbars", "title": "Cocktail Bars"}], "rating": 3.5, "coordinates": {"latitude": 33.6745555678279, "longitude": -111.888217563843}, "transactions": ["delivery", "restaurant_reservation", "pickup"], "price": "$$", "location": {"address1": "20751 N Pima Rd", "address2": "Ste 105", "address3": "", "city": "Scottsdale", "zip_code": "85255", "country": "US", "state": "AZ", "display_address": ["20751 N Pima Rd", "Ste 105", "Scottsdale, AZ 85255"]}, "phone": "+14806294716", "display_phone": "(480) 629-4716", "distance": 20348.697903108623}, {"id": "jzM4dTlstNmGDPRT9SC6Hw", "alias": "barrio-queen-phoenix-3", "name": "Barrio Queen", "image_url": "https://s3-media3.fl.yelpcdn.com/bphoto/Cx5YkYfl2Hc-weo2iTBWzQ/o.jpg", "is_closed": false, "url": "https://www.yelp.com/biz/barrio-queen-phoenix-3?adjust_creative=_XtPN5sB9p2gFalQqwrzYQ&utm_campaign=yelp_api_v3&utm_medium=api_v3_business_search&utm_source=_XtPN5sB9p2gFalQqwrzYQ", "review_count": 1474, "categories": [{"alias": "mexican", "title": "Mexican"}, {"alias": "desserts", "title": "Desserts"}, {"alias": "bars", "title": "Bars"}], "rating": 4.0, "coordinates": {"latitude": 33.677070116240074, "longitude": -111.97486994090312}, "transactions": ["pickup", "delivery"], "price": "$$", "location": {"address1": "21001 N Tatum Blvd", "address2": "Ste 98", "address3": null, "city": "Phoenix", "zip_code": "85050", "country": "US", "state": "AZ", "display_address": ["21001 N Tatum Blvd", "Ste 98", "Phoenix, AZ 85050"]}, "phone": "+14804667445", "display_phone": "(480) 466-7445", "distance": 18648.368558345206}, {"id": "ahPD3Y92O9zX9uCZl8i0Iw", "alias": "state-48-rock-house-phoenix", "name": "State 48 Rock House", "image_url": "https://s3-media2.fl.yelpcdn.com/bphoto/-ziESWqstn1EOkqawbIIMQ/o.jpg", "is_closed": false, "url": "https://www.yelp.com/biz/state-48-rock-house-phoenix?adjust_creative=_XtPN5sB9p2gFalQqwrzYQ&utm_campaign=yelp_api_v3&utm_medium=api_v3_business_search&utm_source=_XtPN5sB9p2gFalQqwrzYQ", "review_count": 285, "categories": [{"alias": "breweries", "title": "Breweries"}, {"alias": "burgers", "title": "Burgers"}], "rating": 3.0, "coordinates": {"latitude": 33.715409, "longitude": -112.1136024}, "transactions": ["pickup", "delivery"], "price": "$$", "location": {"address1": "2530 W Happy Valley Rd", "address2": "Ste 1269", "address3": null, "city": "Phoenix", "zip_code": "85085", "country": "US", "state": "AZ", "display_address": ["2530 W Happy Valley Rd", "Ste 1269", "Phoenix, AZ 85085"]}, "phone": "+16235817553", "display_phone": "(623) 581-7553", "distance": 19615.973423607655}, {"id": "pGhI8CUVz8T8U0p2ztmlew", "alias": "4-sons-food-stores-phoenix-5", "name": "4 Sons Food Stores", "image_url": "https://s3-media2.fl.yelpcdn.com/bphoto/zbrMQtrhQOu-_uMjXKL8OA/o.jpg", "is_closed": false, "url": "https://www.yelp.com/biz/4-sons-food-stores-phoenix-5?adjust_creative=_XtPN5sB9p2gFalQqwrzYQ&utm_campaign=yelp_api_v3&utm_medium=api_v3_business_search&utm_source=_XtPN5sB9p2gFalQqwrzYQ", "review_count": 7, "categories": [{"alias": "grocery", "title": "Grocery"}, {"alias": "convenience", "title": "Convenience Stores"}], "rating": 3.0, "coordinates": {"latitude": 33.7989051, "longitude": -112.0680638}, "transactions": [], "price": "$$", "location": {"address1": "445 E Carefree Hwy", "address2": "", "address3": "", "city": "Phoenix", "zip_code": "85085", "country": "US", "state": "AZ", "display_address": ["445 E Carefree Hwy", "Phoenix, AZ 85085"]}, "phone": "+16235812638", "display_phone": "(623) 581-2638", "distance": 10429.594446382027}, {"id": "Sx2pqHFFerBjzHQSLcxBAQ", "alias": "subway-phoenix-211", "name": "Subway", "image_url": "https://s3-media3.fl.yelpcdn.com/bphoto/sJM7YATNtkM0rHJuoN1JJQ/o.jpg", "is_closed": false, "url": "https://www.yelp.com/biz/subway-phoenix-211?adjust_creative=_XtPN5sB9p2gFalQqwrzYQ&utm_campaign=yelp_api_v3&utm_medium=api_v3_business_search&utm_source=_XtPN5sB9p2gFalQqwrzYQ", "review_count": 30, "categories": [{"alias": "sandwiches", "title": "Sandwiches"}, {"alias": "hotdogs", "title": "Fast Food"}], "rating": 2.0, "coordinates": {"latitude": 33.684247040581, "longitude": -112.109119116088}, "transactions": ["pickup", "delivery"], "price": "$", "location": {"address1": "2302 W Deer Valley Rd", "address2": "", "address3": "", "city": "Phoenix", "zip_code": "85027", "country": "US", "state": "AZ", "display_address": ["2302 W Deer Valley Rd", "Phoenix, AZ 85027"]}, "phone": "+16232157805", "display_phone": "(623) 215-7805", "distance": 22036.511794047547}, {"id": "rv9T1qGHbh9eXqFpKEPy_A", "alias": "sesame-inn-carefree-scottsdale", "name": "Sesame Inn Carefree", "image_url": "https://s3-media1.fl.yelpcdn.com/bphoto/mKLysotQ7oiSe6s7KLSZYA/o.jpg", "is_closed": false, "url": "https://www.yelp.com/biz/sesame-inn-carefree-scottsdale?adjust_creative=_XtPN5sB9p2gFalQqwrzYQ&utm_campaign=yelp_api_v3&utm_medium=api_v3_business_search&utm_source=_XtPN5sB9p2gFalQqwrzYQ", "review_count": 167, "categories": [{"alias": "chinese", "title": "Chinese"}], "rating": 3.0, "coordinates": {"latitude": 33.7986929, "longitude": -111.9282756}, "transactions": ["delivery"], "price": "$$", "location": {"address1": "34482 N Scottsdale Rd", "address2": "", "address3": "", "city": "Scottsdale", "zip_code": "85262", "country": "US", "state": "AZ", "display_address": ["34482 N Scottsdale Rd", "Scottsdale, AZ 85262"]}, "phone": "+14805958888", "display_phone": "(480) 595-8888", "distance": 6263.184628735246}, {"id": "V_2GRA4Jd2ka4GuDaGAq6Q", "alias": "kona-grill-desert-ridge-phoenix-2", "name": "Kona Grill - Desert Ridge", "image_url": "https://s3-media3.fl.yelpcdn.com/bphoto/Ga3ELGRkSfX1yQD7QdZ3Xg/o.jpg", "is_closed": false, "url": "https://www.yelp.com/biz/kona-grill-desert-ridge-phoenix-2?adjust_creative=_XtPN5sB9p2gFalQqwrzYQ&utm_campaign=yelp_api_v3&utm_medium=api_v3_business_search&utm_source=_XtPN5sB9p2gFalQqwrzYQ", "review_count": 70, "categories": [{"alias": "sushi", "title": "Sushi Bars"}, {"alias": "tradamerican", "title": "American"}, {"alias": "cocktailbars", "title": "Cocktail Bars"}], "rating": 2.5, "coordinates": {"latitude": 33.67587199948498, "longitude": -111.97472108126756}, "transactions": [], "location": {"address1": "21001 N Tatum Blvd", "address2": "", "address3": null, "city": "Phoenix", "zip_code": "85050", "country": "US", "state": "AZ", "display_address": ["21001 N Tatum Blvd", "Phoenix, AZ 85050"]}, "phone": "+14805074121", "display_phone": "(480) 507-4121", "distance": 18781.163732493493}, {"id": "oyChBi-c_z_fYeP6aBXgVg", "alias": "pinnacle-peak-general-store-scottsdale", "name": "Pinnacle Peak General Store", "image_url": "https://s3-media1.fl.yelpcdn.com/bphoto/e62Yw7po6_NwGKksE4nYAQ/o.jpg", "is_closed": false, "url": "https://www.yelp.com/biz/pinnacle-peak-general-store-scottsdale?adjust_creative=_XtPN5sB9p2gFalQqwrzYQ&utm_campaign=yelp_api_v3&utm_medium=api_v3_business_search&utm_source=_XtPN5sB9p2gFalQqwrzYQ", "review_count": 153, "categories": [{"alias": "grocery", "title": "Grocery"}, {"alias": "breakfast_brunch", "title": "Breakfast & Brunch"}, {"alias": "tradamerican", "title": "American"}], "rating": 4.0, "coordinates": {"latitude": 33.6976633980603, "longitude": -111.892629922684}, "transactions": ["pickup", "delivery"], "price": "$", "location": {"address1": "8711 E Pinnacle Peak Rd", "address2": "", "address3": "", "city": "Scottsdale", "zip_code": "85255", "country": "US", "state": "AZ", "display_address": ["8711 E Pinnacle Peak Rd", "Scottsdale, AZ 85255"]}, "phone": "+14809911822", "display_phone": "(480) 991-1822", "distance": 17818.060125652573}, {"id": "e-cxqDjKEHEcISP2iGcZxg", "alias": "blue-martini-lounge-phoenix-3", "name": "Blue Martini Lounge", "image_url": "https://s3-media3.fl.yelpcdn.com/bphoto/DDb_-woVWYCsmaA0BzpfPw/o.jpg", "is_closed": false, "url": "https://www.yelp.com/biz/blue-martini-lounge-phoenix-3?adjust_creative=_XtPN5sB9p2gFalQqwrzYQ&utm_campaign=yelp_api_v3&utm_medium=api_v3_business_search&utm_source=_XtPN5sB9p2gFalQqwrzYQ", "review_count": 510, "categories": [{"alias": "newamerican", "title": "New American"}, {"alias": "lounges", "title": "Lounges"}], "rating": 3.5, "coordinates": {"latitude": 33.6753261877659, "longitude": -111.963375202186}, "transactions": [], "price": "$$", "location": {"address1": "5455 E High St", "address2": "Ste 101", "address3": "", "city": "Phoenix", "zip_code": "85054", "country": "US", "state": "AZ", "display_address": ["5455 E High St", "Ste 101", "Phoenix, AZ 85054"]}, "phone": "+14806382583", "display_phone": "(480) 638-2583", "distance": 18842.73297057561}, {"id": "f0R8zFi9RrAKN8ujMZpCpw", "alias": "garden-grill-and-bar-hilton-garden-phoenix", "name": "Garden Grill & Bar - Hilton Garden", "image_url": "https://s3-media3.fl.yelpcdn.com/bphoto/QfAL5c3Kq1cKU56TYG_TYA/o.jpg", "is_closed": false, "url": "https://www.yelp.com/biz/garden-grill-and-bar-hilton-garden-phoenix?adjust_creative=_XtPN5sB9p2gFalQqwrzYQ&utm_campaign=yelp_api_v3&utm_medium=api_v3_business_search&utm_source=_XtPN5sB9p2gFalQqwrzYQ", "review_count": 8, "categories": [{"alias": "newamerican", "title": "New American"}], "rating": 4.0, "coordinates": {"latitude": 33.69962, "longitude": -112.10145}, "transactions": ["pickup", "delivery"], "price": "$$", "location": {"address1": "1940 W Pinnacle Peak Rd", "address2": "", "address3": "", "city": "Phoenix", "zip_code": "85027", "country": "US", "state": "AZ", "display_address": ["1940 W Pinnacle Peak Rd", "Phoenix, AZ 85027"]}, "phone": "+16234345556", "display_phone": "(623) 434-5556", "distance": 20233.749198702237}, {"id": "wJ84TZZTuT0EdLzPHt8RDw", "alias": "carlos-o-briens-mexican-restaurant-phoenix-9", "name": "Carlos O'Brien's Mexican Restaurant", "image_url": "https://s3-media1.fl.yelpcdn.com/bphoto/qfZHcCM8pJHsXa1lbtlr0w/o.jpg", "is_closed": false, "url": "https://www.yelp.com/biz/carlos-o-briens-mexican-restaurant-phoenix-9?adjust_creative=_XtPN5sB9p2gFalQqwrzYQ&utm_campaign=yelp_api_v3&utm_medium=api_v3_business_search&utm_source=_XtPN5sB9p2gFalQqwrzYQ", "review_count": 319, "categories": [{"alias": "mexican", "title": "Mexican"}, {"alias": "bars", "title": "Bars"}, {"alias": "salad", "title": "Salad"}], "rating": 2.5, "coordinates": {"latitude": 33.71231, "longitude": -112.114041}, "transactions": ["pickup", "delivery"], "price": "$$", "location": {"address1": "2501 W Happy Valley Rd", "address2": "Bldg 14", "address3": null, "city": "Phoenix", "zip_code": "85085", "country": "US", "state": "AZ", "display_address": ["2501 W Happy Valley Rd", "Bldg 14", "Phoenix, AZ 85085"]}, "phone": "+16235820679", "display_phone": "(623) 582-0679", "distance": 19897.34147772932}, {"id": "i6bw0P3dauixZViIhpx2XA", "alias": "tikka-shack-indian-grub-phoenix", "name": "Tikka Shack Indian Grub", "image_url": "https://s3-media4.fl.yelpcdn.com/bphoto/figcYKc4P4qDkcz0slt6aA/o.jpg", "is_closed": false, "url": "https://www.yelp.com/biz/tikka-shack-indian-grub-phoenix?adjust_creative=_XtPN5sB9p2gFalQqwrzYQ&utm_campaign=yelp_api_v3&utm_medium=api_v3_business_search&utm_source=_XtPN5sB9p2gFalQqwrzYQ", "review_count": 367, "categories": [{"alias": "indpak", "title": "Indian"}], "rating": 4.0, "coordinates": {"latitude": 33.67634576115067, "longitude": -111.97151855413732}, "transactions": ["pickup", "delivery"], "price": "$$", "location": {"address1": "21001 N Tatum Blvd", "address2": "Ste 48-1520", "address3": null, "city": "Phoenix", "zip_code": "85050", "country": "US", "state": "AZ", "display_address": ["21001 N Tatum Blvd", "Ste 48-1520", "Phoenix, AZ 85050"]}, "phone": "+16023548800", "display_phone": "(602) 354-8800", "distance": 18722.807893109395}, {"id": "b71U71qF0a_RiWr2qVrE8g", "alias": "ajs-fine-foods-scottsdale-3", "name": "AJ's Fine Foods", "image_url": "https://s3-media2.fl.yelpcdn.com/bphoto/1bVWUaqM0K1sd40TP5hNtg/o.jpg", "is_closed": false, "url": "https://www.yelp.com/biz/ajs-fine-foods-scottsdale-3?adjust_creative=_XtPN5sB9p2gFalQqwrzYQ&utm_campaign=yelp_api_v3&utm_medium=api_v3_business_search&utm_source=_XtPN5sB9p2gFalQqwrzYQ", "review_count": 98, "categories": [{"alias": "grocery", "title": "Grocery"}], "rating": 3.5, "coordinates": {"latitude": 33.69674103669849, "longitude": -111.88877278220713}, "transactions": ["pickup", "delivery"], "price": "$$$", "location": {"address1": "23251 N Pima Rd", "address2": "", "address3": "", "city": "Scottsdale", "zip_code": "85255", "country": "US", "state": "AZ", "display_address": ["23251 N Pima Rd", "Scottsdale, AZ 85255"]}, "phone": "+14805635070", "display_phone": "(480) 563-5070", "distance": 18056.12490286791}, {"id": "YJ_nOxPvADRDVRpNi3WSCw", "alias": "red-robin-gourmet-burgers-and-brews-phoenix-2", "name": "Red Robin Gourmet Burgers and Brews", "image_url": "https://s3-media1.fl.yelpcdn.com/bphoto/yW6zsfmoBlYJ_fa9X82peA/o.jpg", "is_closed": false, "url": "https://www.yelp.com/biz/red-robin-gourmet-burgers-and-brews-phoenix-2?adjust_creative=_XtPN5sB9p2gFalQqwrzYQ&utm_campaign=yelp_api_v3&utm_medium=api_v3_business_search&utm_source=_XtPN5sB9p2gFalQqwrzYQ", "review_count": 366, "categories": [{"alias": "burgers", "title": "Burgers"}, {"alias": "tradamerican", "title": "American"}], "rating": 2.5, "coordinates": {"latitude": 33.712058, "longitude": -112.112244865607}, "transactions": ["pickup", "delivery"], "price": "$$", "location": {"address1": "2501 W Happy Valley Rd", "address2": null, "address3": "", "city": "Phoenix", "zip_code": "85085", "country": "US", "state": "AZ", "display_address": ["2501 W Happy Valley Rd", "Phoenix, AZ 85085"]}, "phone": "+16235818635", "display_phone": "(623) 581-8635", "distance": 19806.924230442026}, {"id": "gq_C3JRktj0bqJYf8XVpIQ", "alias": "subway-new-river-2", "name": "Subway", "image_url": "https://s3-media4.fl.yelpcdn.com/bphoto/GrfN75vPzykcnQqifGuG0w/o.jpg", "is_closed": false, "url": "https://www.yelp.com/biz/subway-new-river-2?adjust_creative=_XtPN5sB9p2gFalQqwrzYQ&utm_campaign=yelp_api_v3&utm_medium=api_v3_business_search&utm_source=_XtPN5sB9p2gFalQqwrzYQ", "review_count": 6, "categories": [{"alias": "sandwiches", "title": "Sandwiches"}, {"alias": "hotdogs", "title": "Fast Food"}], "rating": 3.5, "coordinates": {"latitude": 33.9148751600829, "longitude": -112.144305550926}, "transactions": [], "price": "$", "location": {"address1": "3906 W New River Rd", "address2": "", "address3": null, "city": "New River", "zip_code": "85087", "country": "US", "state": "AZ", "display_address": ["3906 W New River Rd", "New River, AZ 85087"]}, "phone": "+16234657139", "display_phone": "(623) 465-7139", "distance": 17947.11733872934}, {"id": "iAm8n7B4Z-EGpCEFw2UlEw", "alias": "frys-food-and-drug-cave-creek", "name": "Fry's Food and Drug", "image_url": "https://s3-media4.fl.yelpcdn.com/bphoto/DYpLPb8PUyGNoM_wDQNqkw/o.jpg", "is_closed": false, "url": "https://www.yelp.com/biz/frys-food-and-drug-cave-creek?adjust_creative=_XtPN5sB9p2gFalQqwrzYQ&utm_campaign=yelp_api_v3&utm_medium=api_v3_business_search&utm_source=_XtPN5sB9p2gFalQqwrzYQ", "review_count": 44, "categories": [{"alias": "grocery", "title": "Grocery"}], "rating": 2.5, "coordinates": {"latitude": 33.797208, "longitude": -111.97681}, "transactions": [], "price": "$$", "location": {"address1": "4815 E Carefree Hwy", "address2": "Ste 100", "address3": "", "city": "Cave Creek", "zip_code": "85331", "country": "US", "state": "AZ", "display_address": ["4815 E Carefree Hwy", "Ste 100", "Cave Creek, AZ 85331"]}, "phone": "+14805750693", "display_phone": "(480) 575-0693", "distance": 5328.646227498682}, {"id": "E7LBDCifz0eAbXsnkULJZg", "alias": "namaste-indian-restaurant-scottsdale", "name": "Namaste Indian Restaurant", "image_url": "https://s3-media1.fl.yelpcdn.com/bphoto/H_nBzqyWcvqxVmqItkSIpQ/o.jpg", "is_closed": false, "url": "https://www.yelp.com/biz/namaste-indian-restaurant-scottsdale?adjust_creative=_XtPN5sB9p2gFalQqwrzYQ&utm_campaign=yelp_api_v3&utm_medium=api_v3_business_search&utm_source=_XtPN5sB9p2gFalQqwrzYQ", "review_count": 279, "categories": [{"alias": "indpak", "title": "Indian"}], "rating": 4.5, "coordinates": {"latitude": 33.67646779104572, "longitude": -111.9240753043395}, "transactions": ["delivery"], "price": "$$", "location": {"address1": "20851 N Scottsdale Rd", "address2": "Ste 102", "address3": "", "city": "Scottsdale", "zip_code": "85255", "country": "US", "state": "AZ", "display_address": ["20851 N Scottsdale Rd", "Ste 102", "Scottsdale, AZ 85255"]}, "phone": "+14802645499", "display_phone": "(480) 264-5499", "distance": 19167.934200480886}, {"id": "6Zk5F7fsTr8n2CJTlaxHlw", "alias": "bevmo-phoenix", "name": "BevMo", "image_url": "https://s3-media1.fl.yelpcdn.com/bphoto/WXrWAuLLIi8ImsWW-9kC2A/o.jpg", "is_closed": false, "url": "https://www.yelp.com/biz/bevmo-phoenix?adjust_creative=_XtPN5sB9p2gFalQqwrzYQ&utm_campaign=yelp_api_v3&utm_medium=api_v3_business_search&utm_source=_XtPN5sB9p2gFalQqwrzYQ", "review_count": 77, "categories": [{"alias": "beer_and_wine", "title": "Beer, Wine & Spirits"}], "rating": 3.5, "coordinates": {"latitude": 33.7144521165583, "longitude": -112.110499405384}, "transactions": ["delivery"], "price": "$$", "location": {"address1": "2370 W Happy Valley Rd", "address2": "Ste 1061", "address3": "", "city": "Phoenix", "zip_code": "85085", "country": "US", "state": "AZ", "display_address": ["2370 W Happy Valley Rd", "Ste 1061", "Phoenix, AZ 85085"]}, "phone": "+16234343371", "display_phone": "(623) 434-3371", "distance": 19500.96941207687}, {"id": "ezFGujMPrLf0wrT2jeko8Q", "alias": "tikka-shack-indian-grub-phoenix-3", "name": "Tikka Shack Indian Grub", "image_url": "https://s3-media2.fl.yelpcdn.com/bphoto/H7rR4s9RUtu7vxo0FD21CA/o.jpg", "is_closed": false, "url": "https://www.yelp.com/biz/tikka-shack-indian-grub-phoenix-3?adjust_creative=_XtPN5sB9p2gFalQqwrzYQ&utm_campaign=yelp_api_v3&utm_medium=api_v3_business_search&utm_source=_XtPN5sB9p2gFalQqwrzYQ", "review_count": 133, "categories": [{"alias": "indpak", "title": "Indian"}], "rating": 4.0, "coordinates": {"latitude": 33.71492357331538, "longitude": -112.11368077055224}, "transactions": ["pickup", "delivery"], "price": "$$", "location": {"address1": "2510 W Happy Valley Rd", "address2": "Ste 1245", "address3": null, "city": "Phoenix", "zip_code": "85085", "country": "US", "state": "AZ", "display_address": ["2510 W Happy Valley Rd", "Ste 1245", "Phoenix, AZ 85085"]}, "phone": "+16232485300", "display_phone": "(623) 248-5300", "distance": 19660.515043118936}, {"id": "00si1kZUFDcYGdTljEWurw", "alias": "walmart-supercenter-cave-creek-2", "name": "Walmart Supercenter", "image_url": "https://s3-media1.fl.yelpcdn.com/bphoto/oWo1Xh4Tj-A0D6LcPxgxww/o.jpg", "is_closed": false, "url": "https://www.yelp.com/biz/walmart-supercenter-cave-creek-2?adjust_creative=_XtPN5sB9p2gFalQqwrzYQ&utm_campaign=yelp_api_v3&utm_medium=api_v3_business_search&utm_source=_XtPN5sB9p2gFalQqwrzYQ", "review_count": 58, "categories": [{"alias": "grocery", "title": "Grocery"}, {"alias": "deptstores", "title": "Department Stores"}], "rating": 3.5, "coordinates": {"latitude": 33.7968329, "longitude": -111.9626367743033}, "transactions": [], "price": "$", "location": {"address1": "34399 N Cave Creek Rd", "address2": "", "address3": "", "city": "Cave Creek", "zip_code": "85331", "country": "US", "state": "AZ", "display_address": ["34399 N Cave Creek Rd", "Cave Creek, AZ 85331"]}, "phone": "+14802967398", "display_phone": "(480) 296-7398", "distance": 5358.714157717737}, {"id": "wzKapkcKZRz209RI5LZyRg", "alias": "4-sons-food-stores-phoenix-3", "name": "4 Sons Food Stores", "image_url": "https://s3-media3.fl.yelpcdn.com/bphoto/ZZTbscQEPzZKlD9ANrNCog/o.jpg", "is_closed": false, "url": "https://www.yelp.com/biz/4-sons-food-stores-phoenix-3?adjust_creative=_XtPN5sB9p2gFalQqwrzYQ&utm_campaign=yelp_api_v3&utm_medium=api_v3_business_search&utm_source=_XtPN5sB9p2gFalQqwrzYQ", "review_count": 33, "categories": [{"alias": "grocery", "title": "Grocery"}], "rating": 2.0, "coordinates": {"latitude": 33.7988891601562, "longitude": -112.128532409668}, "transactions": [], "price": "$$$", "location": {"address1": "3150 W Carefree Hwy", "address2": "", "address3": "", "city": "Phoenix", "zip_code": "85086", "country": "US", "state": "AZ", "display_address": ["3150 W Carefree Hwy", "Phoenix, AZ 85086"]}, "phone": "+16237803221", "display_phone": "(623) 780-3221", "distance": 15563.921551595402}, {"id": "9vkVY5puIHRfKMgJB4LBnw", "alias": "bjs-restaurant-and-brewhouse-phoenix", "name": "BJ's Restaurant & Brewhouse", "image_url": "https://s3-media3.fl.yelpcdn.com/bphoto/dxKn-MmJvW1Y6VvqVlXEGQ/o.jpg", "is_closed": false, "url": "https://www.yelp.com/biz/bjs-restaurant-and-brewhouse-phoenix?adjust_creative=_XtPN5sB9p2gFalQqwrzYQ&utm_campaign=yelp_api_v3&utm_medium=api_v3_business_search&utm_source=_XtPN5sB9p2gFalQqwrzYQ", "review_count": 599, "categories": [{"alias": "breweries", "title": "Breweries"}, {"alias": "newamerican", "title": "New American"}], "rating": 3.5, "coordinates": {"latitude": 33.677277159370306, "longitude": -111.97657}, "transactions": ["delivery", "pickup"], "price": "$$", "location": {"address1": "21001 N Tatum Blvd", "address2": "", "address3": "", "city": "Phoenix", "zip_code": "85050", "country": "US", "state": "AZ", "display_address": ["21001 N Tatum Blvd", "Phoenix, AZ 85050"]}, "phone": "+14805380555", "display_phone": "(480) 538-0555", "distance": 18630.422552499567}, {"id": "b_8jCti0vuouJ_fjZpdmZw", "alias": "soul-cafe-scottsdale-5", "name": "Soul Cafe", "image_url": "https://s3-media3.fl.yelpcdn.com/bphoto/fenMdxmETEFx-M0_drBw9g/o.jpg", "is_closed": false, "url": "https://www.yelp.com/biz/soul-cafe-scottsdale-5?adjust_creative=_XtPN5sB9p2gFalQqwrzYQ&utm_campaign=yelp_api_v3&utm_medium=api_v3_business_search&utm_source=_XtPN5sB9p2gFalQqwrzYQ", "review_count": 1042, "categories": [{"alias": "newamerican", "title": "New American"}, {"alias": "breakfast_brunch", "title": "Breakfast & Brunch"}, {"alias": "seafood", "title": "Seafood"}], "rating": 4.5, "coordinates": {"latitude": 33.69761, "longitude": -111.91585}, "transactions": ["delivery"], "price": "$$", "location": {"address1": "7615 E Pinnacle Peak Rd", "address2": "", "address3": "", "city": "Scottsdale", "zip_code": "85255", "country": "US", "state": "AZ", "display_address": ["7615 E Pinnacle Peak Rd", "Scottsdale, AZ 85255"]}, "phone": "+14805156254", "display_phone": "(480) 515-6254", "distance": 17040.431602479064}, {"id": "XOCB-LqFry0n9MC9Tper8Q", "alias": "subway-cave-creek-3", "name": "Subway", "image_url": "https://s3-media1.fl.yelpcdn.com/bphoto/7aLSAV9mmlR6vNapp9lvlA/o.jpg", "is_closed": false, "url": "https://www.yelp.com/biz/subway-cave-creek-3?adjust_creative=_XtPN5sB9p2gFalQqwrzYQ&utm_campaign=yelp_api_v3&utm_medium=api_v3_business_search&utm_source=_XtPN5sB9p2gFalQqwrzYQ", "review_count": 21, "categories": [{"alias": "sandwiches", "title": "Sandwiches"}], "rating": 2.5, "coordinates": {"latitude": 33.79846424686307, "longitude": -111.9761951}, "transactions": ["pickup"], "price": "$", "location": {"address1": "4815 E Carefree Hwy", "address2": "Ste 126", "address3": "", "city": "Cave Creek", "zip_code": "85331", "country": "US", "state": "AZ", "display_address": ["4815 E Carefree Hwy", "Ste 126", "Cave Creek, AZ 85331"]}, "phone": "+14805959371", "display_phone": "(480) 595-9371", "distance": 5182.838598677519}, {"id": "p9v9Sl2g_ibaajWvO0NjkQ", "alias": "yard-house-phoenix-2", "name": "Yard House", "image_url": "https://s3-media2.fl.yelpcdn.com/bphoto/-NE0ocD_Hu27v8iG1YwW_g/o.jpg", "is_closed": false, "url": "https://www.yelp.com/biz/yard-house-phoenix-2?adjust_creative=_XtPN5sB9p2gFalQqwrzYQ&utm_campaign=yelp_api_v3&utm_medium=api_v3_business_search&utm_source=_XtPN5sB9p2gFalQqwrzYQ", "review_count": 851, "categories": [{"alias": "newamerican", "title": "New American"}, {"alias": "vegetarian", "title": "Vegetarian"}, {"alias": "bars", "title": "Bars"}], "rating": 4.0, "coordinates": {"latitude": 33.6762340435266, "longitude": -111.971177271164}, "transactions": ["delivery", "pickup"], "price": "$$", "location": {"address1": "21001 N Tatum Blvd", "address2": "Ste 48-1550", "address3": "", "city": "Phoenix", "zip_code": "85050", "country": "US", "state": "AZ", "display_address": ["21001 N Tatum Blvd", "Ste 48-1550", "Phoenix, AZ 85050"]}, "phone": "+14805639273", "display_phone": "(480) 563-9273", "distance": 18734.898727675172}, {"id": "rqZ2GN5u3xJ3aUKlqMEm8g", "alias": "new-york-bagels-n-bialys-pima-scottsdale", "name": "New York Bagels N Bialys - Pima", "image_url": "https://s3-media3.fl.yelpcdn.com/bphoto/1HRav2RrKv14sQKE6JfaJw/o.jpg", "is_closed": false, "url": "https://www.yelp.com/biz/new-york-bagels-n-bialys-pima-scottsdale?adjust_creative=_XtPN5sB9p2gFalQqwrzYQ&utm_campaign=yelp_api_v3&utm_medium=api_v3_business_search&utm_source=_XtPN5sB9p2gFalQqwrzYQ", "review_count": 78, "categories": [{"alias": "breakfast_brunch", "title": "Breakfast & Brunch"}, {"alias": "bagels", "title": "Bagels"}, {"alias": "sandwiches", "title": "Sandwiches"}], "rating": 4.0, "coordinates": {"latitude": 33.70087, "longitude": -111.88893}, "transactions": ["delivery", "pickup"], "price": "$$", "location": {"address1": "8876 E Pinnacle Peak Rd", "address2": null, "address3": "", "city": "Scottsdale", "zip_code": "85255", "country": "US", "state": "AZ", "display_address": ["8876 E Pinnacle Peak Rd", "Scottsdale, AZ 85255"]}, "phone": "+14805907200", "display_phone": "(480) 590-7200", "distance": 17633.84326483806}, {"id": "V-xh1wH3lE2rpyUj-4GNbA", "alias": "high-street-farmers-market-phoenix-2", "name": "High Street Farmers Market", "image_url": "https://s3-media3.fl.yelpcdn.com/bphoto/nDfdcCrSkS2TkvuOyIqpVA/o.jpg", "is_closed": false, "url": "https://www.yelp.com/biz/high-street-farmers-market-phoenix-2?adjust_creative=_XtPN5sB9p2gFalQqwrzYQ&utm_campaign=yelp_api_v3&utm_medium=api_v3_business_search&utm_source=_XtPN5sB9p2gFalQqwrzYQ", "review_count": 17, "categories": [{"alias": "farmersmarket", "title": "Farmers Market"}], "rating": 3.5, "coordinates": {"latitude": 33.675592, "longitude": -111.964893}, "transactions": [], "location": {"address1": "5415 E High St", "address2": "", "address3": null, "city": "Phoenix", "zip_code": "85054", "country": "US", "state": "AZ", "display_address": ["5415 E High St", "Phoenix, AZ 85054"]}, "phone": "+16238481234", "display_phone": "(623) 848-1234", "distance": 18809.67925364756}, {"id": "_A-HDETmZ2sW9WSK35eWtA", "alias": "chevron-food-mart-cave-creek", "name": "Chevron Food Mart", "image_url": "https://s3-media2.fl.yelpcdn.com/bphoto/4Ucggs9zhyvDTJ-nIJZOXg/o.jpg", "is_closed": false, "url": "https://www.yelp.com/biz/chevron-food-mart-cave-creek?adjust_creative=_XtPN5sB9p2gFalQqwrzYQ&utm_campaign=yelp_api_v3&utm_medium=api_v3_business_search&utm_source=_XtPN5sB9p2gFalQqwrzYQ", "review_count": 2, "categories": [{"alias": "grocery", "title": "Grocery"}], "rating": 3.5, "coordinates": {"latitude": 33.79844, "longitude": -111.96478}, "transactions": [], "price": "$", "location": {"address1": "5439 E Carefree Hwy", "address2": "", "address3": "", "city": "Cave Creek", "zip_code": "85331", "country": "US", "state": "AZ", "display_address": ["5439 E Carefree Hwy", "Cave Creek, AZ 85331"]}, "phone": "+14805758165", "display_phone": "(480) 575-8165", "distance": 5157.3538398766}, {"id": "82j2FxOIY7gud1IRglm1aw", "alias": "taco-bell-cave-creek-2", "name": "Taco Bell", "image_url": "https://s3-media4.fl.yelpcdn.com/bphoto/ixMq79WrevoRC1nTrDsAQA/o.jpg", "is_closed": false, "url": "https://www.yelp.com/biz/taco-bell-cave-creek-2?adjust_creative=_XtPN5sB9p2gFalQqwrzYQ&utm_campaign=yelp_api_v3&utm_medium=api_v3_business_search&utm_source=_XtPN5sB9p2gFalQqwrzYQ", "review_count": 49, "categories": [{"alias": "mexican", "title": "Mexican"}, {"alias": "hotdogs", "title": "Fast Food"}], "rating": 2.0, "coordinates": {"latitude": 33.755799, "longitude": -111.990488}, "transactions": ["delivery", "pickup"], "price": "$", "location": {"address1": "29844 N Cave Creek Rd", "address2": "", "address3": "", "city": "Cave Creek", "zip_code": "85331", "country": "US", "state": "AZ", "display_address": ["29844 N Cave Creek Rd", "Cave Creek, AZ 85331"]}, "phone": "+14805855781", "display_phone": "(480) 585-5781", "distance": 10080.179084266036}, {"id": "VBVqHnViRLSYAqP7v8iNNQ", "alias": "jalapeno-inferno-scottsdale-scottsdale", "name": "Jalapeno Inferno - Scottsdale", "image_url": "https://s3-media3.fl.yelpcdn.com/bphoto/1jR23Ac7rraJmryNtQB2OQ/o.jpg", "is_closed": false, "url": "https://www.yelp.com/biz/jalapeno-inferno-scottsdale-scottsdale?adjust_creative=_XtPN5sB9p2gFalQqwrzYQ&utm_campaign=yelp_api_v3&utm_medium=api_v3_business_search&utm_source=_XtPN5sB9p2gFalQqwrzYQ", "review_count": 368, "categories": [{"alias": "mexican", "title": "Mexican"}, {"alias": "desserts", "title": "Desserts"}, {"alias": "salad", "title": "Salad"}], "rating": 3.5, "coordinates": {"latitude": 33.67488, "longitude": -111.888635}, "transactions": ["delivery", "pickup"], "price": "$$", "location": {"address1": "20825 N Pima Rd", "address2": "", "address3": "", "city": "Scottsdale", "zip_code": "85255", "country": "US", "state": "AZ", "display_address": ["20825 N Pima Rd", "Scottsdale, AZ 85255"]}, "phone": "+14805138332", "display_phone": "(480) 513-8332", "distance": 20300.960441650237}, {"id": "SJslQXs9j3K6wDixajyp-g", "alias": "majerles-sports-grill-phoenix-3", "name": "Majerle's Sports Grill", "image_url": "https://s3-media4.fl.yelpcdn.com/bphoto/2wVLvOqcXzbQZ2rR1vuYoQ/o.jpg", "is_closed": false, "url": "https://www.yelp.com/biz/majerles-sports-grill-phoenix-3?adjust_creative=_XtPN5sB9p2gFalQqwrzYQ&utm_campaign=yelp_api_v3&utm_medium=api_v3_business_search&utm_source=_XtPN5sB9p2gFalQqwrzYQ", "review_count": 172, "categories": [{"alias": "sportsbars", "title": "Sports Bars"}, {"alias": "newamerican", "title": "New American"}], "rating": 3.0, "coordinates": {"latitude": 33.6771623331903, "longitude": -111.975489177884}, "transactions": ["delivery", "pickup"], "price": "$$", "location": {"address1": "21001 N Tatum Blvd", "address2": "Ste 96", "address3": "", "city": "Phoenix", "zip_code": "85050", "country": "US", "state": "AZ", "display_address": ["21001 N Tatum Blvd", "Ste 96", "Phoenix, AZ 85050"]}, "phone": "+14805854999", "display_phone": "(480) 585-4999", "distance": 18639.80966377816}, {"id": "MjfgD6Okt4_PaOeYNZ-prQ", "alias": "al-hamra-scottsdale", "name": "Al Hamra", "image_url": "https://s3-media4.fl.yelpcdn.com/bphoto/jT1uhkFEuDxVdMXZ9FepsA/o.jpg", "is_closed": false, "url": "https://www.yelp.com/biz/al-hamra-scottsdale?adjust_creative=_XtPN5sB9p2gFalQqwrzYQ&utm_campaign=yelp_api_v3&utm_medium=api_v3_business_search&utm_source=_XtPN5sB9p2gFalQqwrzYQ", "review_count": 171, "categories": [{"alias": "indpak", "title": "Indian"}, {"alias": "halal", "title": "Halal"}, {"alias": "pakistani", "title": "Pakistani"}], "rating": 4.0, "coordinates": {"latitude": 33.69893, "longitude": -111.8888}, "transactions": ["pickup"], "price": "$$", "location": {"address1": "8900 E Pinnacle Peak Rd", "address2": "Ste E1", "address3": "", "city": "Scottsdale", "zip_code": "85255", "country": "US", "state": "AZ", "display_address": ["8900 E Pinnacle Peak Rd", "Ste E1", "Scottsdale, AZ 85255"]}, "phone": "+14805389200", "display_phone": "(480) 538-9200", "distance": 17762.535762088377}, {"id": "-JiBuCPEDOVf0JjDZ9M8oQ", "alias": "breakfast-kitchen-bar-phoenix", "name": "Breakfast Kitchen Bar", "image_url": "https://s3-media1.fl.yelpcdn.com/bphoto/N0YagYFdMyMv-gMkVENAPQ/o.jpg", "is_closed": false, "url": "https://www.yelp.com/biz/breakfast-kitchen-bar-phoenix?adjust_creative=_XtPN5sB9p2gFalQqwrzYQ&utm_campaign=yelp_api_v3&utm_medium=api_v3_business_search&utm_source=_XtPN5sB9p2gFalQqwrzYQ", "review_count": 452, "categories": [{"alias": "breakfast_brunch", "title": "Breakfast & Brunch"}], "rating": 4.0, "coordinates": {"latitude": 33.67418167522332, "longitude": -111.97667218465578}, "transactions": ["delivery", "pickup"], "price": "$$", "location": {"address1": "21001 N Tatum Blvd", "address2": "Ste 18-1010", "address3": null, "city": "Phoenix", "zip_code": "85050", "country": "US", "state": "AZ", "display_address": ["21001 N Tatum Blvd", "Ste 18-1010", "Phoenix, AZ 85050"]}, "phone": "+14805973887", "display_phone": "(480) 597-3887", "distance": 18974.74057891513}, {"id": "l0aaLW6ZdDXWjUegUECSxg", "alias": "olive-garden-italian-restaurant-phoenix-10", "name": "Olive Garden Italian Restaurant", "image_url": "https://s3-media2.fl.yelpcdn.com/bphoto/3sLHLIRhQ178rvYIordX-g/o.jpg", "is_closed": false, "url": "https://www.yelp.com/biz/olive-garden-italian-restaurant-phoenix-10?adjust_creative=_XtPN5sB9p2gFalQqwrzYQ&utm_campaign=yelp_api_v3&utm_medium=api_v3_business_search&utm_source=_XtPN5sB9p2gFalQqwrzYQ", "review_count": 247, "categories": [{"alias": "italian", "title": "Italian"}, {"alias": "salad", "title": "Salad"}, {"alias": "soup", "title": "Soup"}], "rating": 3.5, "coordinates": {"latitude": 33.7120553198657, "longitude": -112.11395075054}, "transactions": [], "price": "$$", "location": {"address1": "2501 W Happy Valley Rd", "address2": "", "address3": "", "city": "Phoenix", "zip_code": "85085", "country": "US", "state": "AZ", "display_address": ["2501 W Happy Valley Rd", "Phoenix, AZ 85085"]}, "phone": "+16234344664", "display_phone": "(623) 434-4664", "distance": 19912.713796051477}, {"id": "ZYr2feXiGYTbWyho_1oUiw", "alias": "egg-n-joe-scottsdale", "name": "Egg N' Joe", "image_url": "https://s3-media2.fl.yelpcdn.com/bphoto/iUNpVHa-a73XaXXlaxCBBA/o.jpg", "is_closed": false, "url": "https://www.yelp.com/biz/egg-n-joe-scottsdale?adjust_creative=_XtPN5sB9p2gFalQqwrzYQ&utm_campaign=yelp_api_v3&utm_medium=api_v3_business_search&utm_source=_XtPN5sB9p2gFalQqwrzYQ", "review_count": 530, "categories": [{"alias": "breakfast_brunch", "title": "Breakfast & Brunch"}], "rating": 4.0, "coordinates": {"latitude": 33.698096900136, "longitude": -111.922886254214}, "transactions": ["delivery"], "price": "$$", "location": {"address1": "23271 N Scottsdale Rd", "address2": "Suite A101", "address3": "", "city": "Scottsdale", "zip_code": "85255", "country": "US", "state": "AZ", "display_address": ["23271 N Scottsdale Rd", "Suite A101", "Scottsdale, AZ 85255"]}, "phone": "+14802659968", "display_phone": "(480) 265-9968", "distance": 16856.203863292034}, {"id": "3coWot77_2VfuOFbzj7dEg", "alias": "comicx-restaurant-bar-and-store-phoenix-3", "name": "ComicX Restaurant Bar & Store", "image_url": "https://s3-media3.fl.yelpcdn.com/bphoto/iicFdB_Q6B9_2vNhxW-lxg/o.jpg", "is_closed": false, "url": "https://www.yelp.com/biz/comicx-restaurant-bar-and-store-phoenix-3?adjust_creative=_XtPN5sB9p2gFalQqwrzYQ&utm_campaign=yelp_api_v3&utm_medium=api_v3_business_search&utm_source=_XtPN5sB9p2gFalQqwrzYQ", "review_count": 614, "categories": [{"alias": "tradamerican", "title": "American"}, {"alias": "bars", "title": "Bars"}, {"alias": "burgers", "title": "Burgers"}], "rating": 3.5, "coordinates": {"latitude": 33.677203934769196, "longitude": -111.97573918546225}, "transactions": ["delivery", "pickup"], "price": "$$", "location": {"address1": "21001 N Tatum Blvd", "address2": "Ste 95", "address3": "Desert Ridge Marketplace", "city": "Phoenix", "zip_code": "85050", "country": "US", "state": "AZ", "display_address": ["21001 N Tatum Blvd", "Ste 95", "Desert Ridge Marketplace", "Phoenix, AZ 85050"]}, "phone": "+14803066780", "display_phone": "(480) 306-6780", "distance": 18635.918739069384}, {"id": "f2z4RM_ungk_zQwcpZcpcQ", "alias": "dave-and-busters-phoenix-scottsdale-phoenix", "name": "Dave & Buster's Phoenix - Scottsdale", "image_url": "https://s3-media3.fl.yelpcdn.com/bphoto/wv00y7HxrRnfTvKAjaQgTQ/o.jpg", "is_closed": false, "url": "https://www.yelp.com/biz/dave-and-busters-phoenix-scottsdale-phoenix?adjust_creative=_XtPN5sB9p2gFalQqwrzYQ&utm_campaign=yelp_api_v3&utm_medium=api_v3_business_search&utm_source=_XtPN5sB9p2gFalQqwrzYQ", "review_count": 401, "categories": [{"alias": "tradamerican", "title": "American"}, {"alias": "arcades", "title": "Arcades"}, {"alias": "sportsbars", "title": "Sports Bars"}], "rating": 3.0, "coordinates": {"latitude": 33.6766309035036, "longitude": -111.972974048935}, "transactions": ["delivery", "pickup"], "price": "$", "location": {"address1": "21001 N Tatum Blvd", "address2": "Ste 44-1400", "address3": "", "city": "Phoenix", "zip_code": "85050", "country": "US", "state": "AZ", "display_address": ["21001 N Tatum Blvd", "Ste 44-1400", "Phoenix, AZ 85050"]}, "phone": "+14805388956", "display_phone": "(480) 538-8956", "distance": 18693.115375156634}, {"id": "GrwvBAEALujIOPQeOfN1vA", "alias": "jalapeno-inferno-scottsdale-91", "name": "Jalapeno Inferno", "image_url": "https://s3-media4.fl.yelpcdn.com/bphoto/LzVnsZqMWCVdq93sJ9_rKQ/o.jpg", "is_closed": false, "url": "https://www.yelp.com/biz/jalapeno-inferno-scottsdale-91?adjust_creative=_XtPN5sB9p2gFalQqwrzYQ&utm_campaign=yelp_api_v3&utm_medium=api_v3_business_search&utm_source=_XtPN5sB9p2gFalQqwrzYQ", "review_count": 835, "categories": [{"alias": "mexican", "title": "Mexican"}], "rating": 3.5, "coordinates": {"latitude": 33.7005533441231, "longitude": -111.923532208756}, "transactions": ["delivery", "pickup"], "price": "$$", "location": {"address1": "23587 N Scottsdale Rd", "address2": "", "address3": "", "city": "Scottsdale", "zip_code": "85255", "country": "US", "state": "AZ", "display_address": ["23587 N Scottsdale Rd", "Scottsdale, AZ 85255"]}, "phone": "+14805856442", "display_phone": "(480) 585-6442", "distance": 16576.84226820798}, {"id": "ypQOqmkR3bl1kZI0C8H-Zg", "alias": "firehouse-subs-scottsdale-3", "name": "Firehouse Subs", "image_url": "https://s3-media3.fl.yelpcdn.com/bphoto/FvW7C1fHtvUxjq7dPePQkA/o.jpg", "is_closed": false, "url": "https://www.yelp.com/biz/firehouse-subs-scottsdale-3?adjust_creative=_XtPN5sB9p2gFalQqwrzYQ&utm_campaign=yelp_api_v3&utm_medium=api_v3_business_search&utm_source=_XtPN5sB9p2gFalQqwrzYQ", "review_count": 60, "categories": [{"alias": "sandwiches", "title": "Sandwiches"}, {"alias": "hotdogs", "title": "Fast Food"}, {"alias": "delis", "title": "Delis"}], "rating": 2.5, "coordinates": {"latitude": 33.69791, "longitude": -111.92465}, "transactions": ["delivery", "pickup"], "price": "$", "location": {"address1": "23335 N Scottsdale Rd", "address2": "Ste D101", "address3": "", "city": "Scottsdale", "zip_code": "85255", "country": "US", "state": "AZ", "display_address": ["23335 N Scottsdale Rd", "Ste D101", "Scottsdale, AZ 85255"]}, "phone": "+14804780922", "display_phone": "(480) 478-0922", "distance": 16835.67044106345}, {"id": "qms2KpC7A0KM3DxGqXWzaQ", "alias": "flower-child-phoenix-4", "name": "Flower Child", "image_url": "https://s3-media4.fl.yelpcdn.com/bphoto/fB0DwiC8oRPUm7_qAt7HMg/o.jpg", "is_closed": false, "url": "https://www.yelp.com/biz/flower-child-phoenix-4?adjust_creative=_XtPN5sB9p2gFalQqwrzYQ&utm_campaign=yelp_api_v3&utm_medium=api_v3_business_search&utm_source=_XtPN5sB9p2gFalQqwrzYQ", "review_count": 383, "categories": [{"alias": "salad", "title": "Salad"}, {"alias": "newamerican", "title": "New American"}, {"alias": "vegetarian", "title": "Vegetarian"}], "rating": 4.0, "coordinates": {"latitude": 33.67491576250614, "longitude": -111.97682462518344}, "transactions": ["delivery"], "price": "$$", "location": {"address1": "21001 N Tatum Blvd", "address2": "16-1000", "address3": null, "city": "Phoenix", "zip_code": "85050", "country": "US", "state": "AZ", "display_address": ["21001 N Tatum Blvd", "16-1000", "Phoenix, AZ 85050"]}, "phone": "+14803975056", "display_phone": "(480) 397-5056", "distance": 18893.6866824383}, {"id": "do1mqM3vTV6FAPqq8Z8wAA", "alias": "subway-cave-creek-4", "name": "Subway", "image_url": "https://s3-media4.fl.yelpcdn.com/bphoto/pJgvvFIWd7XOG7YiKHfOiw/o.jpg", "is_closed": false, "url": "https://www.yelp.com/biz/subway-cave-creek-4?adjust_creative=_XtPN5sB9p2gFalQqwrzYQ&utm_campaign=yelp_api_v3&utm_medium=api_v3_business_search&utm_source=_XtPN5sB9p2gFalQqwrzYQ", "review_count": 27, "categories": [{"alias": "sandwiches", "title": "Sandwiches"}, {"alias": "hotdogs", "title": "Fast Food"}], "rating": 2.0, "coordinates": {"latitude": 33.757983199365, "longitude": -111.990963}, "transactions": ["pickup", "delivery"], "price": "$", "location": {"address1": "29834 N Cave Creek Rd", "address2": "Ste 100", "address3": "", "city": "Cave Creek", "zip_code": "85331", "country": "US", "state": "AZ", "display_address": ["29834 N Cave Creek Rd", "Ste 100", "Cave Creek, AZ 85331"]}, "phone": "+14805133740", "display_phone": "(480) 513-3740", "distance": 9850.931235071177}, {"id": "8Cer-x0kzmYl19A2KtptRw", "alias": "subway-scottsdale-55", "name": "Subway", "image_url": "https://s3-media2.fl.yelpcdn.com/bphoto/wPQg1RAZPWLSpQKTw8W4fw/o.jpg", "is_closed": false, "url": "https://www.yelp.com/biz/subway-scottsdale-55?adjust_creative=_XtPN5sB9p2gFalQqwrzYQ&utm_campaign=yelp_api_v3&utm_medium=api_v3_business_search&utm_source=_XtPN5sB9p2gFalQqwrzYQ", "review_count": 17, "categories": [{"alias": "sandwiches", "title": "Sandwiches"}], "rating": 2.5, "coordinates": {"latitude": 33.699979427153, "longitude": -111.92488429845}, "transactions": ["pickup", "delivery"], "price": "$", "location": {"address1": "23535 N Scottsdale Rd Suite 103 Bidg F", "address2": "Ste 103, Bidg F", "address3": "", "city": "Scottsdale", "zip_code": "85255", "country": "US", "state": "AZ", "display_address": ["23535 N Scottsdale Rd Suite 103 Bidg F", "Ste 103, Bidg F", "Scottsdale, AZ 85255"]}, "phone": "+14805130168", "display_phone": "(480) 513-0168", "distance": 16607.283072949813}, {"id": "-ITj6Pu8Gdw8MmLf0XBEKQ", "alias": "sushi-on-tatum-phoenix", "name": "Sushi On Tatum", "image_url": "https://s3-media1.fl.yelpcdn.com/bphoto/ZM-A4sndU6ves9mo2TKevA/o.jpg", "is_closed": false, "url": "https://www.yelp.com/biz/sushi-on-tatum-phoenix?adjust_creative=_XtPN5sB9p2gFalQqwrzYQ&utm_campaign=yelp_api_v3&utm_medium=api_v3_business_search&utm_source=_XtPN5sB9p2gFalQqwrzYQ", "review_count": 557, "categories": [{"alias": "sushi", "title": "Sushi Bars"}, {"alias": "conveyorsushi", "title": "Conveyor Belt Sushi"}, {"alias": "chinese", "title": "Chinese"}], "rating": 4.0, "coordinates": {"latitude": 33.6752320021018, "longitude": -111.97970292483}, "transactions": ["pickup", "delivery"], "price": "$$", "location": {"address1": "20910 N Tatum Blvd", "address2": "Ste 150", "address3": "", "city": "Phoenix", "zip_code": "85050", "country": "US", "state": "AZ", "display_address": ["20910 N Tatum Blvd", "Ste 150", "Phoenix, AZ 85050"]}, "phone": "+14805138699", "display_phone": "(480) 513-8699", "distance": 18870.335258371717}, {"id": "34VuBMNaG9nJiyqsnoEgPg", "alias": "nori-sushi-phoenix-2", "name": "Nori Sushi", "image_url": "https://s3-media3.fl.yelpcdn.com/bphoto/2x2UgeiBU7tkg5GvR3YZpQ/o.jpg", "is_closed": false, "url": "https://www.yelp.com/biz/nori-sushi-phoenix-2?adjust_creative=_XtPN5sB9p2gFalQqwrzYQ&utm_campaign=yelp_api_v3&utm_medium=api_v3_business_search&utm_source=_XtPN5sB9p2gFalQqwrzYQ", "review_count": 711, "categories": [{"alias": "sushi", "title": "Sushi Bars"}, {"alias": "japanese", "title": "Japanese"}, {"alias": "cocktailbars", "title": "Cocktail Bars"}], "rating": 4.0, "coordinates": {"latitude": 33.676394, "longitude": -111.966192}, "transactions": ["pickup", "delivery"], "price": "$$", "location": {"address1": "5310 E High St", "address2": "Ste 101", "address3": "", "city": "Phoenix", "zip_code": "85054", "country": "US", "state": "AZ", "display_address": ["5310 E High St", "Ste 101", "Phoenix, AZ 85054"]}, "phone": "+14804945147", "display_phone": "(480) 494-5147", "distance": 18701.843683300838}, {"id": "Edq3REDbBfss0WQu2Ta93w", "alias": "caf\u00e9-zupas-phoenix-6", "name": "Caf\u00e9 Zupas", "image_url": "https://s3-media3.fl.yelpcdn.com/bphoto/uA8YkXYX-n1ZpaA-K4L5YA/o.jpg", "is_closed": false, "url": "https://www.yelp.com/biz/caf%C3%A9-zupas-phoenix-6?adjust_creative=_XtPN5sB9p2gFalQqwrzYQ&utm_campaign=yelp_api_v3&utm_medium=api_v3_business_search&utm_source=_XtPN5sB9p2gFalQqwrzYQ", "review_count": 228, "categories": [{"alias": "salad", "title": "Salad"}, {"alias": "soup", "title": "Soup"}, {"alias": "sandwiches", "title": "Sandwiches"}], "rating": 3.0, "coordinates": {"latitude": 33.7130949, "longitude": -112.1120215}, "transactions": ["pickup", "delivery"], "price": "$", "location": {"address1": "2510 W Happy Valley Rd", "address2": null, "address3": "", "city": "Phoenix", "zip_code": "85085", "country": "US", "state": "AZ", "display_address": ["2510 W Happy Valley Rd", "Phoenix, AZ 85085"]}, "phone": "+14804479375", "display_phone": "(480) 447-9375", "distance": 19652.0246431557}, {"id": "sVHAdRWYLXlnsNw2TsdwxQ", "alias": "jersey-mikes-subs-cave-creek", "name": "Jersey Mike's Subs", "image_url": "https://s3-media2.fl.yelpcdn.com/bphoto/qkW0Y8rHjdGfvfXZY7-zNg/o.jpg", "is_closed": false, "url": "https://www.yelp.com/biz/jersey-mikes-subs-cave-creek?adjust_creative=_XtPN5sB9p2gFalQqwrzYQ&utm_campaign=yelp_api_v3&utm_medium=api_v3_business_search&utm_source=_XtPN5sB9p2gFalQqwrzYQ", "review_count": 69, "categories": [{"alias": "sandwiches", "title": "Sandwiches"}, {"alias": "hotdogs", "title": "Fast Food"}, {"alias": "delis", "title": "Delis"}], "rating": 2.5, "coordinates": {"latitude": 33.7988201103427, "longitude": -111.96634119141558}, "transactions": ["pickup", "delivery"], "price": "$", "location": {"address1": "5355 E Carefree Hwy", "address2": "Bldg B Ste 106", "address3": "", "city": "Cave Creek", "zip_code": "85331", "country": "US", "state": "AZ", "display_address": ["5355 E Carefree Hwy", "Bldg B Ste 106", "Cave Creek, AZ 85331"]}, "phone": "+14805721891", "display_phone": "(480) 572-1891", "distance": 5110.03333000206}, {"id": "Mgvk_jOcpmE7OWbLQRGx9Q", "alias": "subway-phoenix-192", "name": "Subway", "image_url": "https://s3-media1.fl.yelpcdn.com/bphoto/hBEg6YtjI1C9u0YX-_oiHg/o.jpg", "is_closed": false, "url": "https://www.yelp.com/biz/subway-phoenix-192?adjust_creative=_XtPN5sB9p2gFalQqwrzYQ&utm_campaign=yelp_api_v3&utm_medium=api_v3_business_search&utm_source=_XtPN5sB9p2gFalQqwrzYQ", "review_count": 23, "categories": [{"alias": "sandwiches", "title": "Sandwiches"}], "rating": 2.5, "coordinates": {"latitude": 33.675386078054, "longitude": -111.979848734044}, "transactions": ["pickup", "delivery"], "price": "$", "location": {"address1": "20910 N Tatum Blvd", "address2": "Ste 190", "address3": "", "city": "Phoenix", "zip_code": "85050", "country": "US", "state": "AZ", "display_address": ["20910 N Tatum Blvd", "Ste 190", "Phoenix, AZ 85050"]}, "phone": "+14805136978", "display_phone": "(480) 513-6978", "distance": 18853.922841553653}, {"id": "gL1ySg2KyzD4TymLzICJ5Q", "alias": "safeway-glendale-5", "name": "Safeway", "image_url": "https://s3-media2.fl.yelpcdn.com/bphoto/o1VaFhSeb4vR3DSNJD99BA/o.jpg", "is_closed": false, "url": "https://www.yelp.com/biz/safeway-glendale-5?adjust_creative=_XtPN5sB9p2gFalQqwrzYQ&utm_campaign=yelp_api_v3&utm_medium=api_v3_business_search&utm_source=_XtPN5sB9p2gFalQqwrzYQ", "review_count": 76, "categories": [{"alias": "grocery", "title": "Grocery"}], "rating": 3.0, "coordinates": {"latitude": 33.7144097196846, "longitude": -112.141090061377}, "transactions": [], "price": "$$", "location": {"address1": "3800 W Happy Valley Rd", "address2": "", "address3": "", "city": "Glendale", "zip_code": "85310", "country": "US", "state": "AZ", "display_address": ["3800 W Happy Valley Rd", "Glendale, AZ 85310"]}, "phone": "+16235181946", "display_phone": "(623) 518-1946", "distance": 21500.021255410797}, {"id": "Ljknr0VF5Ia2DlTzELg-Kg", "alias": "salad-and-go-phoenix", "name": "Salad and Go", "image_url": "https://s3-media2.fl.yelpcdn.com/bphoto/20iETvlVQ2wBjlqBU21KFQ/o.jpg", "is_closed": false, "url": "https://www.yelp.com/biz/salad-and-go-phoenix?adjust_creative=_XtPN5sB9p2gFalQqwrzYQ&utm_campaign=yelp_api_v3&utm_medium=api_v3_business_search&utm_source=_XtPN5sB9p2gFalQqwrzYQ", "review_count": 438, "categories": [{"alias": "salad", "title": "Salad"}, {"alias": "breakfast_brunch", "title": "Breakfast & Brunch"}, {"alias": "hotdogs", "title": "Fast Food"}], "rating": 4.0, "coordinates": {"latitude": 33.69893034614428, "longitude": -112.10195312067393}, "transactions": ["delivery"], "price": "$", "location": {"address1": "2006 W Pinnacle Peak Rd", "address2": "", "address3": "", "city": "Phoenix", "zip_code": "85027", "country": "US", "state": "AZ", "display_address": ["2006 W Pinnacle Peak Rd", "Phoenix, AZ 85027"]}, "phone": "+14807612741", "display_phone": "(480) 761-2741", "distance": 20329.511580322298}, {"id": "cnfYugAYBFKgwDCTAVdViA", "alias": "pita-jungle-phoenix-4", "name": "Pita Jungle", "image_url": "https://s3-media4.fl.yelpcdn.com/bphoto/_hlgP_gM7MgYDn0rhRoeUQ/o.jpg", "is_closed": false, "url": "https://www.yelp.com/biz/pita-jungle-phoenix-4?adjust_creative=_XtPN5sB9p2gFalQqwrzYQ&utm_campaign=yelp_api_v3&utm_medium=api_v3_business_search&utm_source=_XtPN5sB9p2gFalQqwrzYQ", "review_count": 429, "categories": [{"alias": "newamerican", "title": "New American"}, {"alias": "mediterranean", "title": "Mediterranean"}, {"alias": "vegetarian", "title": "Vegetarian"}], "rating": 3.5, "coordinates": {"latitude": 33.7152904084362, "longitude": -112.113346593918}, "transactions": ["pickup", "delivery"], "price": "$$", "location": {"address1": "2530 W Happy Valley Rd", "address2": "Ste 1261", "address3": "", "city": "Phoenix", "zip_code": "85085", "country": "US", "state": "AZ", "display_address": ["2530 W Happy Valley Rd", "Ste 1261", "Phoenix, AZ 85085"]}, "phone": "+16235875572", "display_phone": "(623) 587-5572", "distance": 19609.580019371748}, {"id": "m1Y47fK3vWCJXV3TdCn_Xw", "alias": "pita-jungle-phoenix-2", "name": "Pita Jungle", "image_url": "https://s3-media1.fl.yelpcdn.com/bphoto/2P__V45SbIIOlBHI7AWdDg/o.jpg", "is_closed": false, "url": "https://www.yelp.com/biz/pita-jungle-phoenix-2?adjust_creative=_XtPN5sB9p2gFalQqwrzYQ&utm_campaign=yelp_api_v3&utm_medium=api_v3_business_search&utm_source=_XtPN5sB9p2gFalQqwrzYQ", "review_count": 566, "categories": [{"alias": "mediterranean", "title": "Mediterranean"}, {"alias": "vegetarian", "title": "Vegetarian"}, {"alias": "newamerican", "title": "New American"}], "rating": 3.5, "coordinates": {"latitude": 33.6749041548855, "longitude": -111.980081281306}, "transactions": ["pickup", "delivery"], "price": "$$", "location": {"address1": "20910 N Tatum Blvd", "address2": "Ste 140", "address3": "", "city": "Phoenix", "zip_code": "85050", "country": "US", "state": "AZ", "display_address": ["20910 N Tatum Blvd", "Ste 140", "Phoenix, AZ 85050"]}, "phone": "+14804732321", "display_phone": "(480) 473-2321", "distance": 18908.566811317363}, {"id": "rK6eGfWIlURp255E4VkJNA", "alias": "omaha-steaks-phoenix-2", "name": "Omaha Steaks", "image_url": "https://s3-media3.fl.yelpcdn.com/bphoto/gOQStC7XQqrds4vNg382uA/o.jpg", "is_closed": false, "url": "https://www.yelp.com/biz/omaha-steaks-phoenix-2?adjust_creative=_XtPN5sB9p2gFalQqwrzYQ&utm_campaign=yelp_api_v3&utm_medium=api_v3_business_search&utm_source=_XtPN5sB9p2gFalQqwrzYQ", "review_count": 27, "categories": [{"alias": "meats", "title": "Meat Shops"}, {"alias": "butcher", "title": "Butcher"}], "rating": 2.5, "coordinates": {"latitude": 33.67643829620422, "longitude": -111.97559769616775}, "transactions": ["delivery"], "price": "$$", "location": {"address1": "21001 N Tatum Blvd", "address2": "Ste 10", "address3": "", "city": "Phoenix", "zip_code": "85050", "country": "US", "state": "AZ", "display_address": ["21001 N Tatum Blvd", "Ste 10", "Phoenix, AZ 85050"]}, "phone": "+14805159605", "display_phone": "(480) 515-9605", "distance": 18720.593273507908}, {"id": "j8OUTcN1RG-UCzFUW8oogg", "alias": "jimmy-johns-phoenix-5", "name": "Jimmy John's", "image_url": "https://s3-media3.fl.yelpcdn.com/bphoto/r8E7Um75i6MgVrNH8KAB5w/o.jpg", "is_closed": false, "url": "https://www.yelp.com/biz/jimmy-johns-phoenix-5?adjust_creative=_XtPN5sB9p2gFalQqwrzYQ&utm_campaign=yelp_api_v3&utm_medium=api_v3_business_search&utm_source=_XtPN5sB9p2gFalQqwrzYQ", "review_count": 80, "categories": [{"alias": "delis", "title": "Delis"}, {"alias": "sandwiches", "title": "Sandwiches"}, {"alias": "hotdogs", "title": "Fast Food"}], "rating": 2.0, "coordinates": {"latitude": 33.675606, "longitude": -111.97154484352085}, "transactions": [], "price": "$", "location": {"address1": "21001 N Tatum Blvd", "address2": "Ste. 34-1115", "address3": "", "city": "Phoenix", "zip_code": "85050", "country": "US", "state": "AZ", "display_address": ["21001 N Tatum Blvd", "Ste. 34-1115", "Phoenix, AZ 85050"]}, "phone": "+14803218052", "display_phone": "(480) 321-8052", "distance": 18805.087820524812}, {"id": "okX1jSK4-4uPdglVFNYhSw", "alias": "taco-bell-phoenix-27", "name": "Taco Bell", "image_url": "https://s3-media2.fl.yelpcdn.com/bphoto/0YU5-uHhOhcDb5IL4x9m6w/o.jpg", "is_closed": false, "url": "https://www.yelp.com/biz/taco-bell-phoenix-27?adjust_creative=_XtPN5sB9p2gFalQqwrzYQ&utm_campaign=yelp_api_v3&utm_medium=api_v3_business_search&utm_source=_XtPN5sB9p2gFalQqwrzYQ", "review_count": 76, "categories": [{"alias": "hotdogs", "title": "Fast Food"}, {"alias": "mexican", "title": "Mexican"}], "rating": 3.0, "coordinates": {"latitude": 33.683674, "longitude": -112.100217}, "transactions": ["delivery"], "price": "$", "location": {"address1": "1909 West Deer Valley Rd", "address2": "", "address3": "", "city": "Phoenix", "zip_code": "85027", "country": "US", "state": "AZ", "display_address": ["1909 West Deer Valley Rd", "Phoenix, AZ 85027"]}, "phone": "+16235164776", "display_phone": "(623) 516-4776", "distance": 21616.670613836603}, {"id": "LfHUUOyJXWzUbyDrYfHHkw", "alias": "panera-bread-phoenix-7", "name": "Panera Bread", "image_url": "https://s3-media2.fl.yelpcdn.com/bphoto/Qsq_s4AQC4vKnsqpzCqBLQ/o.jpg", "is_closed": false, "url": "https://www.yelp.com/biz/panera-bread-phoenix-7?adjust_creative=_XtPN5sB9p2gFalQqwrzYQ&utm_campaign=yelp_api_v3&utm_medium=api_v3_business_search&utm_source=_XtPN5sB9p2gFalQqwrzYQ", "review_count": 195, "categories": [{"alias": "sandwiches", "title": "Sandwiches"}, {"alias": "salad", "title": "Salad"}, {"alias": "soup", "title": "Soup"}], "rating": 2.5, "coordinates": {"latitude": 33.714501, "longitude": -112.110632}, "transactions": ["pickup", "delivery"], "price": "$$", "location": {"address1": "2370 West Happy Valley Rd", "address2": "Suite 169", "address3": "", "city": "Phoenix", "zip_code": "85085", "country": "US", "state": "AZ", "display_address": ["2370 West Happy Valley Rd", "Suite 169", "Phoenix, AZ 85085"]}, "phone": "+16234144885", "display_phone": "(623) 414-4885", "distance": 19503.008672598626}, {"id": "1DswS8btQKkWFyTUZlcgCQ", "alias": "taco-bell-phoenix-56", "name": "Taco Bell", "image_url": "https://s3-media2.fl.yelpcdn.com/bphoto/3IhKohb6K5RYxAZx_Fhz-w/o.jpg", "is_closed": false, "url": "https://www.yelp.com/biz/taco-bell-phoenix-56?adjust_creative=_XtPN5sB9p2gFalQqwrzYQ&utm_campaign=yelp_api_v3&utm_medium=api_v3_business_search&utm_source=_XtPN5sB9p2gFalQqwrzYQ", "review_count": 41, "categories": [{"alias": "hotdogs", "title": "Fast Food"}, {"alias": "mexican", "title": "Mexican"}], "rating": 2.5, "coordinates": {"latitude": 33.801046, "longitude": -112.130346}, "transactions": ["delivery"], "price": "$", "location": {"address1": "34906 N Valley Parkway", "address2": null, "address3": null, "city": "Phoenix", "zip_code": "85086", "country": "US", "state": "AZ", "display_address": ["34906 N Valley Parkway", "Phoenix, AZ 85086"]}, "phone": "+16235167776", "display_phone": "(623) 516-7776", "distance": 15655.962341604638}, {"id": "2adhYiY1IQ5flntw30Sdew", "alias": "copper-blues-live-phoenix-2", "name": "Copper Blues Live", "image_url": "https://s3-media2.fl.yelpcdn.com/bphoto/8QwMA4zfVWFDpyWu4zFQPg/o.jpg", "is_closed": false, "url": "https://www.yelp.com/biz/copper-blues-live-phoenix-2?adjust_creative=_XtPN5sB9p2gFalQqwrzYQ&utm_campaign=yelp_api_v3&utm_medium=api_v3_business_search&utm_source=_XtPN5sB9p2gFalQqwrzYQ", "review_count": 272, "categories": [{"alias": "bars", "title": "Bars"}, {"alias": "musicvenues", "title": "Music Venues"}, {"alias": "tradamerican", "title": "American"}], "rating": 3.5, "coordinates": {"latitude": 33.67614217992238, "longitude": -111.9739541646924}, "transactions": ["delivery"], "price": "$$", "location": {"address1": "21001 N Tatum Blvd", "address2": null, "address3": null, "city": "Phoenix", "zip_code": "85050", "country": "US", "state": "AZ", "display_address": ["21001 N Tatum Blvd", "Phoenix, AZ 85050"]}, "phone": "+16029105161", "display_phone": "(602) 910-5161", "distance": 18749.34431432074}, {"id": "FKNvQvsknpNSG26hVtzJ0w", "alias": "einstein-bros-bagels-phoenix-17", "name": "Einstein Bros. Bagels", "image_url": "https://s3-media3.fl.yelpcdn.com/bphoto/2IPgbFK4Sj0fbSefb7A1IQ/o.jpg", "is_closed": false, "url": "https://www.yelp.com/biz/einstein-bros-bagels-phoenix-17?adjust_creative=_XtPN5sB9p2gFalQqwrzYQ&utm_campaign=yelp_api_v3&utm_medium=api_v3_business_search&utm_source=_XtPN5sB9p2gFalQqwrzYQ", "review_count": 146, "categories": [{"alias": "breakfast_brunch", "title": "Breakfast & Brunch"}, {"alias": "sandwiches", "title": "Sandwiches"}, {"alias": "bagels", "title": "Bagels"}], "rating": 2.0, "coordinates": {"latitude": 33.67941127388006, "longitude": -111.97524312882}, "transactions": ["delivery"], "price": "$", "location": {"address1": "21001 N Tatum Blvd", "address2": "Ste 80-1650", "address3": "", "city": "Phoenix", "zip_code": "85050", "country": "US", "state": "AZ", "display_address": ["21001 N Tatum Blvd", "Ste 80-1650", "Phoenix, AZ 85050"]}, "phone": "+14805853920", "display_phone": "(480) 585-3920", "distance": 18389.158939543984}]